{
"type": "FeatureCollection",
"features": [
{ "type": "Feature", "properties": { "stop_id": "de:09162:1", "stop_name": "Karlsplatz (Stachus)", "stop_lat": 48.139505271367398, "stop_lon": 11.566132678151099, "location_type": 1.0, "parent_station": null }, "geometry": { "type": "Point", "coordinates": [ 11.566132678151099, 48.139505271367398 ] } },
{ "type": "Feature", "properties": { "stop_id": "de:09162:10", "stop_name": "Pasing Bf.", "stop_lat": 48.148897997701802, "stop_lon": 11.4604279186541, "location_type": 1.0, "parent_station": null }, "geometry": { "type": "Point", "coordinates": [ 11.4604279186541, 48.148897997701802 ] } },
{ "type": "Feature", "properties": { "stop_id": "de:09162:1000", "stop_name": "Perlach Bahnhof", "stop_lat": 48.093451865654799, "stop_lon": 11.630973075367899, "location_type": 1.0, "parent_station": null }, "geometry": { "type": "Point", "coordinates": [ 11.630973075367899, 48.093451865654799 ] } },
{ "type": "Feature", "properties": { "stop_id": "de:09162:1001", "stop_name": "Anzinger Straße", "stop_lat": 48.121218392945302, "stop_lon": 11.6056405843522, "location_type": 1.0, "parent_station": null }, "geometry": { "type": "Point", "coordinates": [ 11.6056405843522, 48.121218392945302 ] } },
{ "type": "Feature", "properties": { "stop_id": "de:09162:1002", "stop_name": "Nailastraße", "stop_lat": 48.0886096328137, "stop_lon": 11.6335871728451, "location_type": 1.0, "parent_station": null }, "geometry": { "type": "Point", "coordinates": [ 11.6335871728451, 48.0886096328137 ] } },
{ "type": "Feature", "properties": { "stop_id": "de:09162:1003", "stop_name": "Ramersdorf", "stop_lat": 48.115419193523202, "stop_lon": 11.613393045255201, "location_type": 1.0, "parent_station": null }, "geometry": { "type": "Point", "coordinates": [ 11.613393045255201, 48.115419193523202 ] } },
{ "type": "Feature", "properties": { "stop_id": "de:09162:1004", "stop_name": "Hechtseestraße", "stop_lat": 48.115695075129302, "stop_lon": 11.621226354533899, "location_type": 1.0, "parent_station": null }, "geometry": { "type": "Point", "coordinates": [ 11.621226354533899, 48.115695075129302 ] } },
{ "type": "Feature", "properties": { "stop_id": "de:09162:1005", "stop_name": "Krumbadstraße", "stop_lat": 48.1166186679867, "stop_lon": 11.6252058912431, "location_type": 1.0, "parent_station": null }, "geometry": { "type": "Point", "coordinates": [ 11.6252058912431, 48.1166186679867 ] } },
{ "type": "Feature", "properties": { "stop_id": "de:09162:1006", "stop_name": "Rudolf-Zorn-Straße", "stop_lat": 48.090889799254498, "stop_lon": 11.6348178647845, "location_type": 1.0, "parent_station": null }, "geometry": { "type": "Point", "coordinates": [ 11.6348178647845, 48.090889799254498 ] } },
{ "type": "Feature", "properties": { "stop_id": "de:09162:1007", "stop_name": "Heinrich-Wieland-Straße", "stop_lat": 48.117152425119997, "stop_lon": 11.6399382619047, "location_type": 1.0, "parent_station": null }, "geometry": { "type": "Point", "coordinates": [ 11.6399382619047, 48.117152425119997 ] } },
{ "type": "Feature", "properties": { "stop_id": "de:09162:1008", "stop_name": "Hermann-Pünder-Straße", "stop_lat": 48.088447617140702, "stop_lon": 11.635841944208501, "location_type": 1.0, "parent_station": null }, "geometry": { "type": "Point", "coordinates": [ 11.635841944208501, 48.088447617140702 ] } },
{ "type": "Feature", "properties": { "stop_id": "de:09162:1009", "stop_name": "Corinthstraße", "stop_lat": 48.112486360528003, "stop_lon": 11.6496221006688, "location_type": 1.0, "parent_station": null }, "geometry": { "type": "Point", "coordinates": [ 11.6496221006688, 48.112486360528003 ] } },
{ "type": "Feature", "properties": { "stop_id": "de:09162:101", "stop_name": "Hans-Fischer-Straße", "stop_lat": 48.127622539131501, "stop_lon": 11.545067184735601, "location_type": 1.0, "parent_station": null }, "geometry": { "type": "Point", "coordinates": [ 11.545067184735601, 48.127622539131501 ] } },
{ "type": "Feature", "properties": { "stop_id": "de:09162:1010", "stop_name": "Neuperlach Süd", "stop_lat": 48.088951664224801, "stop_lon": 11.645103574789101, "location_type": 1.0, "parent_station": null }, "geometry": { "type": "Point", "coordinates": [ 11.645103574789101, 48.088951664224801 ] } },
{ "type": "Feature", "properties": { "stop_id": "de:09162:1011", "stop_name": "Karl-Marx-Ring", "stop_lat": 48.109121493175799, "stop_lon": 11.649927527865501, "location_type": 1.0, "parent_station": null }, "geometry": { "type": "Point", "coordinates": [ 11.649927527865501, 48.109121493175799 ] } },
{ "type": "Feature", "properties": { "stop_id": "de:09162:1012", "stop_name": "Ludwig-Linsert-Straße", "stop_lat": 48.086275357712601, "stop_lon": 11.6348358310902, "location_type": 1.0, "parent_station": null }, "geometry": { "type": "Point", "coordinates": [ 11.6348358310902, 48.086275357712601 ] } },
{ "type": "Feature", "properties": { "stop_id": "de:09162:1013", "stop_name": "Ludwig-Erhard-Allee", "stop_lat": 48.085237201331402, "stop_lon": 11.639444188498301, "location_type": 1.0, "parent_station": null }, "geometry": { "type": "Point", "coordinates": [ 11.639444188498301, 48.085237201331402 ] } },
{ "type": "Feature", "properties": { "stop_id": "de:09162:1014", "stop_name": "Wilhelm-Hoegner-Straße", "stop_lat": 48.098875585035699, "stop_lon": 11.6363988996847, "location_type": 1.0, "parent_station": null }, "geometry": { "type": "Point", "coordinates": [ 11.6363988996847, 48.098875585035699 ] } },
{ "type": "Feature", "properties": { "stop_id": "de:09162:1015", "stop_name": "Thomas-Dehler-Straße", "stop_lat": 48.097351721675899, "stop_lon": 11.644366956256, "location_type": 1.0, "parent_station": null }, "geometry": { "type": "Point", "coordinates": [ 11.644366956256, 48.097351721675899 ] } },
{ "type": "Feature", "properties": { "stop_id": "de:09162:1016", "stop_name": "Jakob-Kaiser-Straße", "stop_lat": 48.104352720918897, "stop_lon": 11.6404053858525, "location_type": 1.0, "parent_station": null }, "geometry": { "type": "Point", "coordinates": [ 11.6404053858525, 48.104352720918897 ] } },
{ "type": "Feature", "properties": { "stop_id": "de:09162:1017", "stop_name": "Holzwiesenstraße", "stop_lat": 48.103074974706402, "stop_lon": 11.636596529047299, "location_type": 1.0, "parent_station": null }, "geometry": { "type": "Point", "coordinates": [ 11.636596529047299, 48.103074974706402 ] } },
{ "type": "Feature", "properties": { "stop_id": "de:09162:1018", "stop_name": "Curd-Jürgens-Straße", "stop_lat": 48.085369222380898, "stop_lon": 11.642920668648401, "location_type": 1.0, "parent_station": null }, "geometry": { "type": "Point", "coordinates": [ 11.642920668648401, 48.085369222380898 ] } },
{ "type": "Feature", "properties": { "stop_id": "de:09162:1019", "stop_name": "Pfanzeltplatz", "stop_lat": 48.100219427053702, "stop_lon": 11.6305778166428, "location_type": 1.0, "parent_station": null }, "geometry": { "type": "Point", "coordinates": [ 11.6305778166428, 48.100219427053702 ] } },
{ "type": "Feature", "properties": { "stop_id": "de:09162:102", "stop_name": "Gollierplatz", "stop_lat": 48.136304038965697, "stop_lon": 11.5343143507832, "location_type": 1.0, "parent_station": null }, "geometry": { "type": "Point", "coordinates": [ 11.5343143507832, 48.136304038965697 ] } },
{ "type": "Feature", "properties": { "stop_id": "de:09162:1020", "stop_name": "Therese-Giehse-Allee", "stop_lat": 48.094771850038597, "stop_lon": 11.6427769382029, "location_type": 1.0, "parent_station": null }, "geometry": { "type": "Point", "coordinates": [ 11.6427769382029, 48.094771850038597 ] } },
{ "type": "Feature", "properties": { "stop_id": "de:09162:1021", "stop_name": "Neuer Südfriedhof", "stop_lat": 48.1009213305705, "stop_lon": 11.6224300970147, "location_type": 1.0, "parent_station": null }, "geometry": { "type": "Point", "coordinates": [ 11.6224300970147, 48.1009213305705 ] } },
{ "type": "Feature", "properties": { "stop_id": "de:09162:1022", "stop_name": "Hochäckerstraße", "stop_lat": 48.101047312238499, "stop_lon": 11.606467034413701, "location_type": 1.0, "parent_station": null }, "geometry": { "type": "Point", "coordinates": [ 11.606467034413701, 48.101047312238499 ] } },
{ "type": "Feature", "properties": { "stop_id": "de:09162:1023", "stop_name": "Ständlerstraße", "stop_lat": 48.104598668422497, "stop_lon": 11.6051824435573, "location_type": 1.0, "parent_station": null }, "geometry": { "type": "Point", "coordinates": [ 11.6051824435573, 48.104598668422497 ] } },
{ "type": "Feature", "properties": { "stop_id": "de:09162:1024", "stop_name": "Neuer Südfriedhof West", "stop_lat": 48.101173293597903, "stop_lon": 11.618270897248699, "location_type": 1.0, "parent_station": null }, "geometry": { "type": "Point", "coordinates": [ 11.618270897248699, 48.101173293597903 ] } },
{ "type": "Feature", "properties": { "stop_id": "de:09162:1025", "stop_name": "St.-Martin-Straße Ost", "stop_lat": 48.1191854492575, "stop_lon": 11.600349507328, "location_type": 1.0, "parent_station": null }, "geometry": { "type": "Point", "coordinates": [ 11.600349507328, 48.1191854492575 ] } },
{ "type": "Feature", "properties": { "stop_id": "de:09162:1026", "stop_name": "Thomasiusplatz", "stop_lat": 48.115821020587497, "stop_lon": 11.6022629188835, "location_type": 1.0, "parent_station": null }, "geometry": { "type": "Point", "coordinates": [ 11.6022629188835, 48.115821020587497 ] } },
{ "type": "Feature", "properties": { "stop_id": "de:09162:1027", "stop_name": "Aschheimer Straße", "stop_lat": 48.1209545345911, "stop_lon": 11.612952870766, "location_type": 1.0, "parent_station": null }, "geometry": { "type": "Point", "coordinates": [ 11.612952870766, 48.1209545345911 ] } },
{ "type": "Feature", "properties": { "stop_id": "de:09162:1028", "stop_name": "Ostpark Eislaufzentrum", "stop_lat": 48.1111068515415, "stop_lon": 11.632069020014701, "location_type": 1.0, "parent_station": null }, "geometry": { "type": "Point", "coordinates": [ 11.632069020014701, 48.1111068515415 ] } },
{ "type": "Feature", "properties": { "stop_id": "de:09162:1029", "stop_name": "Wolframstraße", "stop_lat": 48.094861847739899, "stop_lon": 11.6357970284443, "location_type": 1.0, "parent_station": null }, "geometry": { "type": "Point", "coordinates": [ 11.6357970284443, 48.094861847739899 ] } },
{ "type": "Feature", "properties": { "stop_id": "de:09162:103", "stop_name": "Schlörstraße", "stop_lat": 48.150012782819097, "stop_lon": 11.536829633579099, "location_type": 1.0, "parent_station": null }, "geometry": { "type": "Point", "coordinates": [ 11.536829633579099, 48.150012782819097 ] } },
{ "type": "Feature", "properties": { "stop_id": "de:09162:1030", "stop_name": "Neuperlach Zentrum", "stop_lat": 48.101203289114103, "stop_lon": 11.646154603671601, "location_type": 1.0, "parent_station": null }, "geometry": { "type": "Point", "coordinates": [ 11.646154603671601, 48.101203289114103 ] } },
{ "type": "Feature", "properties": { "stop_id": "de:09162:1031", "stop_name": "Diakon-Kerolt-Weg", "stop_lat": 48.112186470420298, "stop_lon": 11.6173815651173, "location_type": 1.0, "parent_station": null }, "geometry": { "type": "Point", "coordinates": [ 11.6173815651173, 48.112186470420298 ] } },
{ "type": "Feature", "properties": { "stop_id": "de:09162:1032", "stop_name": "Woferlstraße", "stop_lat": 48.108401706848603, "stop_lon": 11.6189446337119, "location_type": 1.0, "parent_station": null }, "geometry": { "type": "Point", "coordinates": [ 11.6189446337119, 48.108401706848603 ] } },
{ "type": "Feature", "properties": { "stop_id": "de:09162:1033", "stop_name": "Weddigenstraße", "stop_lat": 48.103806833230699, "stop_lon": 11.6246669020725, "location_type": 1.0, "parent_station": null }, "geometry": { "type": "Point", "coordinates": [ 11.6246669020725, 48.103806833230699 ] } },
{ "type": "Feature", "properties": { "stop_id": "de:09162:1034", "stop_name": "Schumacherring", "stop_lat": 48.099487517453497, "stop_lon": 11.640971324481599, "location_type": 1.0, "parent_station": null }, "geometry": { "type": "Point", "coordinates": [ 11.640971324481599, 48.099487517453497 ] } },
{ "type": "Feature", "properties": { "stop_id": "de:09162:1035", "stop_name": "Friedhof Perlach", "stop_lat": 48.097843682500802, "stop_lon": 11.641115054927001, "location_type": 1.0, "parent_station": null }, "geometry": { "type": "Point", "coordinates": [ 11.641115054927001, 48.097843682500802 ] } },
{ "type": "Feature", "properties": { "stop_id": "de:09162:1036", "stop_name": "Berger-Kreuz-Straße", "stop_lat": 48.112936192408, "stop_lon": 11.6263108190427, "location_type": 1.0, "parent_station": null }, "geometry": { "type": "Point", "coordinates": [ 11.6263108190427, 48.112936192408 ] } },
{ "type": "Feature", "properties": { "stop_id": "de:09162:1037", "stop_name": "Hofangerstraße", "stop_lat": 48.110615017643198, "stop_lon": 11.627415746842299, "location_type": 1.0, "parent_station": null }, "geometry": { "type": "Point", "coordinates": [ 11.627415746842299, 48.110615017643198 ] } },
{ "type": "Feature", "properties": { "stop_id": "de:09162:1038", "stop_name": "Emdenstraße", "stop_lat": 48.107058078732102, "stop_lon": 11.6278379550259, "location_type": 1.0, "parent_station": null }, "geometry": { "type": "Point", "coordinates": [ 11.6278379550259, 48.107058078732102 ] } },
{ "type": "Feature", "properties": { "stop_id": "de:09162:1039", "stop_name": "Georg-Brauchle-Haus", "stop_lat": 48.1102071518158, "stop_lon": 11.637782305222499, "location_type": 1.0, "parent_station": null }, "geometry": { "type": "Point", "coordinates": [ 11.637782305222499, 48.1102071518158 ] } },
{ "type": "Feature", "properties": { "stop_id": "de:09162:104", "stop_name": "Albrechtstraße", "stop_lat": 48.155544395886203, "stop_lon": 11.540216282200699, "location_type": 1.0, "parent_station": null }, "geometry": { "type": "Point", "coordinates": [ 11.540216282200699, 48.155544395886203 ] } },
{ "type": "Feature", "properties": { "stop_id": "de:09162:1040", "stop_name": "Quiddestraße", "stop_lat": 48.108221758691698, "stop_lon": 11.646675626536499, "location_type": 1.0, "parent_station": null }, "geometry": { "type": "Point", "coordinates": [ 11.646675626536499, 48.108221758691698 ] } },
{ "type": "Feature", "properties": { "stop_id": "de:09162:1041", "stop_name": "Nawiaskystraße", "stop_lat": 48.107166050146503, "stop_lon": 11.6365695795888, "location_type": 1.0, "parent_station": null }, "geometry": { "type": "Point", "coordinates": [ 11.6365695795888, 48.107166050146503 ] } },
{ "type": "Feature", "properties": { "stop_id": "de:09162:1042", "stop_name": "Staudingerstraße", "stop_lat": 48.109253452909002, "stop_lon": 11.6393453738171, "location_type": 1.0, "parent_station": null }, "geometry": { "type": "Point", "coordinates": [ 11.6393453738171, 48.109253452909002 ] } },
{ "type": "Feature", "properties": { "stop_id": "de:09162:1043", "stop_name": "Plettstraße", "stop_lat": 48.109133489529199, "stop_lon": 11.644304074186101, "location_type": 1.0, "parent_station": null }, "geometry": { "type": "Point", "coordinates": [ 11.644304074186101, 48.109133489529199 ] } },
{ "type": "Feature", "properties": { "stop_id": "de:09162:1044", "stop_name": "Ungsteiner Straße", "stop_lat": 48.115047350753599, "stop_lon": 11.597106589151901, "location_type": 1.0, "parent_station": null }, "geometry": { "type": "Point", "coordinates": [ 11.597106589151901, 48.115047350753599 ] } },
{ "type": "Feature", "properties": { "stop_id": "de:09162:1045", "stop_name": "Fockensteinstraße", "stop_lat": 48.109757296046098, "stop_lon": 11.5891564988863, "location_type": 1.0, "parent_station": null }, "geometry": { "type": "Point", "coordinates": [ 11.5891564988863, 48.109757296046098 ] } },
{ "type": "Feature", "properties": { "stop_id": "de:09162:1046", "stop_name": "Valeppstraße", "stop_lat": 48.110938908788398, "stop_lon": 11.5842516974344, "location_type": 1.0, "parent_station": null }, "geometry": { "type": "Point", "coordinates": [ 11.5842516974344, 48.110938908788398 ] } },
{ "type": "Feature", "properties": { "stop_id": "de:09162:1047", "stop_name": "Adilostraße", "stop_lat": 48.106308270985899, "stop_lon": 11.6211994050753, "location_type": 1.0, "parent_station": null }, "geometry": { "type": "Point", "coordinates": [ 11.6211994050753, 48.106308270985899 ] } },
{ "type": "Feature", "properties": { "stop_id": "de:09162:1048", "stop_name": "Siegfried-Mollier-Straße", "stop_lat": 48.1065482106548, "stop_lon": 11.6463791824927, "location_type": 1.0, "parent_station": null }, "geometry": { "type": "Point", "coordinates": [ 11.6463791824927, 48.1065482106548 ] } },
{ "type": "Feature", "properties": { "stop_id": "de:09162:105", "stop_name": "Fasaneriestraße", "stop_lat": 48.157312228809303, "stop_lon": 11.5434592003768, "location_type": 1.0, "parent_station": null }, "geometry": { "type": "Point", "coordinates": [ 11.5434592003768, 48.157312228809303 ] } },
{ "type": "Feature", "properties": { "stop_id": "de:09162:1050", "stop_name": "Michaelibad", "stop_lat": 48.118399835898202, "stop_lon": 11.6314401993157, "location_type": 1.0, "parent_station": null }, "geometry": { "type": "Point", "coordinates": [ 11.6314401993157, 48.118399835898202 ] } },
{ "type": "Feature", "properties": { "stop_id": "de:09162:1053", "stop_name": "Fasangartenstraße", "stop_lat": 48.089821733876903, "stop_lon": 11.6111742065032, "location_type": 1.0, "parent_station": null }, "geometry": { "type": "Point", "coordinates": [ 11.6111742065032, 48.089821733876903 ] } },
{ "type": "Feature", "properties": { "stop_id": "de:09162:1054", "stop_name": "Obernzeller Straße", "stop_lat": 48.0927858606724, "stop_lon": 11.609844699882499, "location_type": 1.0, "parent_station": null }, "geometry": { "type": "Point", "coordinates": [ 11.609844699882499, 48.0927858606724 ] } },
{ "type": "Feature", "properties": { "stop_id": "de:09162:1055", "stop_name": "Plassenburgstraße", "stop_lat": 48.097357721226501, "stop_lon": 11.607868406257101, "location_type": 1.0, "parent_station": null }, "geometry": { "type": "Point", "coordinates": [ 11.607868406257101, 48.097357721226501 ] } },
{ "type": "Feature", "properties": { "stop_id": "de:09162:1056", "stop_name": "Balanstraße", "stop_lat": 48.108587652615597, "stop_lon": 11.6040595494519, "location_type": 1.0, "parent_station": null }, "geometry": { "type": "Point", "coordinates": [ 11.6040595494519, 48.108587652615597 ] } },
{ "type": "Feature", "properties": { "stop_id": "de:09162:1057", "stop_name": "Klagenfurter Straße", "stop_lat": 48.112504353878798, "stop_lon": 11.603062419486401, "location_type": 1.0, "parent_station": null }, "geometry": { "type": "Point", "coordinates": [ 11.603062419486401, 48.112504353878798 ] } },
{ "type": "Feature", "properties": { "stop_id": "de:09162:1058", "stop_name": "Mitterweg", "stop_lat": 48.101377262763101, "stop_lon": 11.6104825037343, "location_type": 1.0, "parent_station": null }, "geometry": { "type": "Point", "coordinates": [ 11.6104825037343, 48.101377262763101 ] } },
{ "type": "Feature", "properties": { "stop_id": "de:09162:1059", "stop_name": "Görzer Straße", "stop_lat": 48.095557824643997, "stop_lon": 11.609395542240399, "location_type": 1.0, "parent_station": null }, "geometry": { "type": "Point", "coordinates": [ 11.609395542240399, 48.095557824643997 ] } },
{ "type": "Feature", "properties": { "stop_id": "de:09162:106", "stop_name": "Infanteriestraße", "stop_lat": 48.1614469221959, "stop_lon": 11.5536101630888, "location_type": 1.0, "parent_station": null }, "geometry": { "type": "Point", "coordinates": [ 11.5536101630888, 48.1614469221959 ] } },
{ "type": "Feature", "properties": { "stop_id": "de:09162:1060", "stop_name": "Innsbrucker Ring", "stop_lat": 48.120462794950797, "stop_lon": 11.6186931054323, "location_type": 1.0, "parent_station": null }, "geometry": { "type": "Point", "coordinates": [ 11.6186931054323, 48.120462794950797 ] } },
{ "type": "Feature", "properties": { "stop_id": "de:09162:1061", "stop_name": "Landrichterstraße", "stop_lat": 48.088657637359397, "stop_lon": 11.6075450127548, "location_type": 1.0, "parent_station": null }, "geometry": { "type": "Point", "coordinates": [ 11.6075450127548, 48.088657637359397 ] } },
{ "type": "Feature", "properties": { "stop_id": "de:09162:1062", "stop_name": "Cincinnatistraße", "stop_lat": 48.092725859799998, "stop_lon": 11.6017957949357, "location_type": 1.0, "parent_station": null }, "geometry": { "type": "Point", "coordinates": [ 11.6017957949357, 48.092725859799998 ] } },
{ "type": "Feature", "properties": { "stop_id": "de:09162:1064", "stop_name": "Langbürgener Straße", "stop_lat": 48.110633011649298, "stop_lon": 11.6128720223904, "location_type": 1.0, "parent_station": null }, "geometry": { "type": "Point", "coordinates": [ 11.6128720223904, 48.110633011649298 ] } },
{ "type": "Feature", "properties": { "stop_id": "de:09162:107", "stop_name": "Barbarastraße", "stop_lat": 48.161357041100501, "stop_lon": 11.558973105335699, "location_type": 1.0, "parent_station": null }, "geometry": { "type": "Point", "coordinates": [ 11.558973105335699, 48.161357041100501 ] } },
{ "type": "Feature", "properties": { "stop_id": "de:09162:1070", "stop_name": "Karl-Preis-Platz", "stop_lat": 48.117938057554198, "stop_lon": 11.608425361733399, "location_type": 1.0, "parent_station": null }, "geometry": { "type": "Point", "coordinates": [ 11.608425361733399, 48.117938057554198 ] } },
{ "type": "Feature", "properties": { "stop_id": "de:09162:108", "stop_name": "Hohenzollernstraße", "stop_lat": 48.1592417938596, "stop_lon": 11.5854015409982, "location_type": 1.0, "parent_station": null }, "geometry": { "type": "Point", "coordinates": [ 11.5854015409982, 48.1592417938596 ] } },
{ "type": "Feature", "properties": { "stop_id": "de:09162:109", "stop_name": "Friedrichstraße", "stop_lat": 48.159972852343799, "stop_lon": 11.580550638463301, "location_type": 1.0, "parent_station": null }, "geometry": { "type": "Point", "coordinates": [ 11.580550638463301, 48.159972852343799 ] } },
{ "type": "Feature", "properties": { "stop_id": "de:09162:11", "stop_name": "Leonrodplatz", "stop_lat": 48.159469501717702, "stop_lon": 11.547393821321799, "location_type": 1.0, "parent_station": null }, "geometry": { "type": "Point", "coordinates": [ 11.547393821321799, 48.159469501717702 ] } },
{ "type": "Feature", "properties": { "stop_id": "de:09162:110", "stop_name": "Königsplatz", "stop_lat": 48.144978077119099, "stop_lon": 11.5632401029359, "location_type": 1.0, "parent_station": null }, "geometry": { "type": "Point", "coordinates": [ 11.5632401029359, 48.144978077119099 ] } },
{ "type": "Feature", "properties": { "stop_id": "de:09162:1101", "stop_name": "Ganghoferbrücke", "stop_lat": 48.127934331107902, "stop_lon": 11.539111354401101, "location_type": 1.0, "parent_station": null }, "geometry": { "type": "Point", "coordinates": [ 11.539111354401101, 48.127934331107902 ] } },
{ "type": "Feature", "properties": { "stop_id": "de:09162:1102", "stop_name": "Herzog-Ernst-Platz", "stop_lat": 48.125338005562497, "stop_lon": 11.540782220829801, "location_type": 1.0, "parent_station": null }, "geometry": { "type": "Point", "coordinates": [ 11.540782220829801, 48.125338005562497 ] } },
{ "type": "Feature", "properties": { "stop_id": "de:09162:1103", "stop_name": "Sendlinger Kirche", "stop_lat": 48.121979976502899, "stop_lon": 11.541150530096299, "location_type": 1.0, "parent_station": null }, "geometry": { "type": "Point", "coordinates": [ 11.541150530096299, 48.121979976502899 ] } },
{ "type": "Feature", "properties": { "stop_id": "de:09162:1104", "stop_name": "Margaretenplatz", "stop_lat": 48.120025022774001, "stop_lon": 11.5407373050655, "location_type": 1.0, "parent_station": null }, "geometry": { "type": "Point", "coordinates": [ 11.5407373050655, 48.120025022774001 ] } },
{ "type": "Feature", "properties": { "stop_id": "de:09162:1105", "stop_name": "Ostfriedhof", "stop_lat": 48.119047518010497, "stop_lon": 11.583658809346799, "location_type": 1.0, "parent_station": null }, "geometry": { "type": "Point", "coordinates": [ 11.583658809346799, 48.119047518010497 ] } },
{ "type": "Feature", "properties": { "stop_id": "de:09162:1106", "stop_name": "St.-Martins-Platz", "stop_lat": 48.117230389180897, "stop_lon": 11.5884019140476, "location_type": 1.0, "parent_station": null }, "geometry": { "type": "Point", "coordinates": [ 11.5884019140476, 48.117230389180897 ] } },
{ "type": "Feature", "properties": { "stop_id": "de:09162:1107", "stop_name": "Werinherstraße", "stop_lat": 48.114957388389001, "stop_lon": 11.592480265438001, "location_type": 1.0, "parent_station": null }, "geometry": { "type": "Point", "coordinates": [ 11.592480265438001, 48.114957388389001 ] } },
{ "type": "Feature", "properties": { "stop_id": "de:09162:1108", "stop_name": "Chiemgaustraße", "stop_lat": 48.106716167756602, "stop_lon": 11.596325054854599, "location_type": 1.0, "parent_station": null }, "geometry": { "type": "Point", "coordinates": [ 11.596325054854599, 48.106716167756602 ] } },
{ "type": "Feature", "properties": { "stop_id": "de:09162:1109", "stop_name": "Schwanseestraße", "stop_lat": 48.103146961252797, "stop_lon": 11.5969987913178, "location_type": 1.0, "parent_station": null }, "geometry": { "type": "Point", "coordinates": [ 11.5969987913178, 48.103146961252797 ] } },
{ "type": "Feature", "properties": { "stop_id": "de:09162:111", "stop_name": "Regerplatz", "stop_lat": 48.124366598294998, "stop_lon": 11.588132419462299, "location_type": 1.0, "parent_station": null }, "geometry": { "type": "Point", "coordinates": [ 11.588132419462299, 48.124366598294998 ] } },
{ "type": "Feature", "properties": { "stop_id": "de:09162:1110", "stop_name": "Giesing Bahnhof", "stop_lat": 48.111004886364, "stop_lon": 11.5957142004613, "location_type": 1.0, "parent_station": null }, "geometry": { "type": "Point", "coordinates": [ 11.5957142004613, 48.111004886364 ] } },
{ "type": "Feature", "properties": { "stop_id": "de:09162:1111", "stop_name": "Traunsteiner Straße", "stop_lat": 48.104676651531598, "stop_lon": 11.5874047840821, "location_type": 1.0, "parent_station": null }, "geometry": { "type": "Point", "coordinates": [ 11.5874047840821, 48.104676651531598 ] } },
{ "type": "Feature", "properties": { "stop_id": "de:09162:1112", "stop_name": "Pöllatstraße", "stop_lat": 48.1052045340817, "stop_lon": 11.5907285506338, "location_type": 1.0, "parent_station": null }, "geometry": { "type": "Point", "coordinates": [ 11.5907285506338, 48.1052045340817 ] } },
{ "type": "Feature", "properties": { "stop_id": "de:09162:1115", "stop_name": "Tegernseer Landstraße", "stop_lat": 48.112246448581899, "stop_lon": 11.576364489238699, "location_type": 1.0, "parent_station": null }, "geometry": { "type": "Point", "coordinates": [ 11.576364489238699, 48.112246448581899 ] } },
{ "type": "Feature", "properties": { "stop_id": "de:09162:1117", "stop_name": "Kurzstraße", "stop_lat": 48.104634660641402, "stop_lon": 11.5698606865808, "location_type": 1.0, "parent_station": null }, "geometry": { "type": "Point", "coordinates": [ 11.5698606865808, 48.104634660641402 ] } },
{ "type": "Feature", "properties": { "stop_id": "de:09162:1118", "stop_name": "Südtiroler Straße", "stop_lat": 48.100735357067599, "stop_lon": 11.566635734710299, "location_type": 1.0, "parent_station": null }, "geometry": { "type": "Point", "coordinates": [ 11.566635734710299, 48.100735357067599 ] } },
{ "type": "Feature", "properties": { "stop_id": "de:09162:1119", "stop_name": "Tiroler Platz", "stop_lat": 48.096211794356698, "stop_lon": 11.563689260578, "location_type": 1.0, "parent_station": null }, "geometry": { "type": "Point", "coordinates": [ 11.563689260578, 48.096211794356698 ] } },
{ "type": "Feature", "properties": { "stop_id": "de:09162:112", "stop_name": "Viktualienmarkt", "stop_lat": 48.135254902524103, "stop_lon": 11.574927184783901, "location_type": 1.0, "parent_station": null }, "geometry": { "type": "Point", "coordinates": [ 11.574927184783901, 48.135254902524103 ] } },
{ "type": "Feature", "properties": { "stop_id": "de:09162:1120", "stop_name": "Fasangarten Bf.", "stop_lat": 48.093307865308503, "stop_lon": 11.604616504928201, "location_type": 1.0, "parent_station": null }, "geometry": { "type": "Point", "coordinates": [ 11.604616504928201, 48.093307865308503 ] } },
{ "type": "Feature", "properties": { "stop_id": "de:09162:1121", "stop_name": "Authariplatz", "stop_lat": 48.0920238443911, "stop_lon": 11.562575349625501, "location_type": 1.0, "parent_station": null }, "geometry": { "type": "Point", "coordinates": [ 11.562575349625501, 48.0920238443911 ] } },
{ "type": "Feature", "properties": { "stop_id": "de:09162:1122", "stop_name": "Theodolindenplatz", "stop_lat": 48.090337768233503, "stop_lon": 11.5569788454047, "location_type": 1.0, "parent_station": null }, "geometry": { "type": "Point", "coordinates": [ 11.5569788454047, 48.090337768233503 ] } },
{ "type": "Feature", "properties": { "stop_id": "de:09162:1123", "stop_name": "Klinikum Harlaching", "stop_lat": 48.0867854268703, "stop_lon": 11.5548588213339, "location_type": 1.0, "parent_station": null }, "geometry": { "type": "Point", "coordinates": [ 11.5548588213339, 48.0867854268703 ] } },
{ "type": "Feature", "properties": { "stop_id": "de:09162:1124", "stop_name": "Menterschwaige", "stop_lat": 48.080208147247099, "stop_lon": 11.5518045493674, "location_type": 1.0, "parent_station": null }, "geometry": { "type": "Point", "coordinates": [ 11.5518045493674, 48.080208147247099 ] } },
{ "type": "Feature", "properties": { "stop_id": "de:09162:1125", "stop_name": "Großhesseloher Brücke", "stop_lat": 48.076823161002899, "stop_lon": 11.550178598703001, "location_type": 1.0, "parent_station": null }, "geometry": { "type": "Point", "coordinates": [ 11.550178598703001, 48.076823161002899 ] } },
{ "type": "Feature", "properties": { "stop_id": "de:09162:1126", "stop_name": "Schilcherweg", "stop_lat": 48.071373105312198, "stop_lon": 11.5474656865445, "location_type": 1.0, "parent_station": null }, "geometry": { "type": "Point", "coordinates": [ 11.5474656865445, 48.071373105312198 ] } },
{ "type": "Feature", "properties": { "stop_id": "de:09162:1128", "stop_name": "Senserstraße", "stop_lat": 48.122951428905601, "stop_lon": 11.548579597497, "location_type": 1.0, "parent_station": null }, "geometry": { "type": "Point", "coordinates": [ 11.548579597497, 48.122951428905601 ] } },
{ "type": "Feature", "properties": { "stop_id": "de:09162:1129", "stop_name": "Am Harras", "stop_lat": 48.117014488414597, "stop_lon": 11.5396593267245, "location_type": 1.0, "parent_station": null }, "geometry": { "type": "Point", "coordinates": [ 11.5396593267245, 48.117014488414597 ] } },
{ "type": "Feature", "properties": { "stop_id": "de:09162:113", "stop_name": "Blumenstraße", "stop_lat": 48.133186542177597, "stop_lon": 11.573957004276901, "location_type": 1.0, "parent_station": null }, "geometry": { "type": "Point", "coordinates": [ 11.573957004276901, 48.133186542177597 ] } },
{ "type": "Feature", "properties": { "stop_id": "de:09162:1130", "stop_name": "Harras", "stop_lat": 48.116894543152398, "stop_lon": 11.5379076119202, "location_type": 1.0, "parent_station": null }, "geometry": { "type": "Point", "coordinates": [ 11.5379076119202, 48.116894543152398 ] } },
{ "type": "Feature", "properties": { "stop_id": "de:09162:1131", "stop_name": "Aberlestraße", "stop_lat": 48.122345772465302, "stop_lon": 11.544573111329299, "location_type": 1.0, "parent_station": null }, "geometry": { "type": "Point", "coordinates": [ 11.544573111329299, 48.122345772465302 ] } },
{ "type": "Feature", "properties": { "stop_id": "de:09162:1132", "stop_name": "Lagerhausstraße", "stop_lat": 48.120432810674203, "stop_lon": 11.555370861045899, "location_type": 1.0, "parent_station": null }, "geometry": { "type": "Point", "coordinates": [ 11.555370861045899, 48.120432810674203 ] } },
{ "type": "Feature", "properties": { "stop_id": "de:09162:1133", "stop_name": "Großmarkthalle", "stop_lat": 48.119755161354398, "stop_lon": 11.5523345553851, "location_type": 1.0, "parent_station": null }, "geometry": { "type": "Point", "coordinates": [ 11.5523345553851, 48.119755161354398 ] } },
{ "type": "Feature", "properties": { "stop_id": "de:09162:1134", "stop_name": "Gotzinger Platz", "stop_lat": 48.117626204896098, "stop_lon": 11.550358261759801, "location_type": 1.0, "parent_station": null }, "geometry": { "type": "Point", "coordinates": [ 11.550358261759801, 48.117626204896098 ] } },
{ "type": "Feature", "properties": { "stop_id": "de:09162:1135", "stop_name": "Parkhaus Blumengroßmarkt", "stop_lat": 48.119047518010497, "stop_lon": 11.557805295466199, "location_type": 1.0, "parent_station": null }, "geometry": { "type": "Point", "coordinates": [ 11.557805295466199, 48.119047518010497 ] } },
{ "type": "Feature", "properties": { "stop_id": "de:09162:1139", "stop_name": "Maria-Einsiedel-Straße", "stop_lat": 48.097357721226501, "stop_lon": 11.5445102292594, "location_type": 1.0, "parent_station": null }, "geometry": { "type": "Point", "coordinates": [ 11.5445102292594, 48.097357721226501 ] } },
{ "type": "Feature", "properties": { "stop_id": "de:09162:114", "stop_name": "Gärtnerplatztheater", "stop_lat": 48.132227274316399, "stop_lon": 11.575295494050399, "location_type": 1.0, "parent_station": null }, "geometry": { "type": "Point", "coordinates": [ 11.575295494050399, 48.132227274316399 ] } },
{ "type": "Feature", "properties": { "stop_id": "de:09162:1140", "stop_name": "Implerstraße", "stop_lat": 48.1201449607277, "stop_lon": 11.5483370523703, "location_type": 1.0, "parent_station": null }, "geometry": { "type": "Point", "coordinates": [ 11.5483370523703, 48.1201449607277 ] } },
{ "type": "Feature", "properties": { "stop_id": "de:09162:1141", "stop_name": "Zentralländstraße", "stop_lat": 48.100555382069501, "stop_lon": 11.548157389313401, "location_type": 1.0, "parent_station": null }, "geometry": { "type": "Point", "coordinates": [ 11.548157389313401, 48.100555382069501 ] } },
{ "type": "Feature", "properties": { "stop_id": "de:09162:1142", "stop_name": "Bad Maria Einsiedel", "stop_lat": 48.096763762320002, "stop_lon": 11.547097377278, "location_type": 1.0, "parent_station": null }, "geometry": { "type": "Point", "coordinates": [ 11.547097377278, 48.096763762320002 ] } },
{ "type": "Feature", "properties": { "stop_id": "de:09162:1143", "stop_name": "Floßlände", "stop_lat": 48.094645852992102, "stop_lon": 11.5455792244476, "location_type": 1.0, "parent_station": null }, "geometry": { "type": "Point", "coordinates": [ 11.5455792244476, 48.094645852992102 ] } },
{ "type": "Feature", "properties": { "stop_id": "de:09162:1144", "stop_name": "Campingplatz Thalkirchen", "stop_lat": 48.0916218312517, "stop_lon": 11.5440071727002, "location_type": 1.0, "parent_station": null }, "geometry": { "type": "Point", "coordinates": [ 11.5440071727002, 48.0916218312517 ] } },
{ "type": "Feature", "properties": { "stop_id": "de:09162:1145", "stop_name": "Hinterbrühl", "stop_lat": 48.087109468178198, "stop_lon": 11.541150530096299, "location_type": 1.0, "parent_station": null }, "geometry": { "type": "Point", "coordinates": [ 11.541150530096299, 48.087109468178198 ] } },
{ "type": "Feature", "properties": { "stop_id": "de:09162:1146", "stop_name": "Spixstraße", "stop_lat": 48.111034876143101, "stop_lon": 11.5795714748034, "location_type": 1.0, "parent_station": null }, "geometry": { "type": "Point", "coordinates": [ 11.5795714748034, 48.111034876143101 ] } },
{ "type": "Feature", "properties": { "stop_id": "de:09162:1148", "stop_name": "Schäftlarnstraße / Gasteig HP8", "stop_lat": 48.112330417890398, "stop_lon": 11.5535742304774, "location_type": 1.0, "parent_station": null }, "geometry": { "type": "Point", "coordinates": [ 11.5535742304774, 48.112330417890398 ] } },
{ "type": "Feature", "properties": { "stop_id": "de:09162:1149", "stop_name": "Heckenstallerstraße", "stop_lat": 48.111244804106597, "stop_lon": 11.5396323772659, "location_type": 1.0, "parent_station": null }, "geometry": { "type": "Point", "coordinates": [ 11.5396323772659, 48.111244804106597 ] } },
{ "type": "Feature", "properties": { "stop_id": "de:09162:115", "stop_name": "Baaderstraße", "stop_lat": 48.129996907271597, "stop_lon": 11.5784126480868, "location_type": 1.0, "parent_station": null }, "geometry": { "type": "Point", "coordinates": [ 11.5784126480868, 48.129996907271597 ] } },
{ "type": "Feature", "properties": { "stop_id": "de:09162:1150", "stop_name": "Heimeranplatz", "stop_lat": 48.133546263005499, "stop_lon": 11.5324099223806, "location_type": 1.0, "parent_station": null }, "geometry": { "type": "Point", "coordinates": [ 11.5324099223806, 48.133546263005499 ] } },
{ "type": "Feature", "properties": { "stop_id": "de:09162:1151", "stop_name": "Neuhofen", "stop_lat": 48.107142056518498, "stop_lon": 11.540009669685301, "location_type": 1.0, "parent_station": null }, "geometry": { "type": "Point", "coordinates": [ 11.540009669685301, 48.107142056518498 ] } },
{ "type": "Feature", "properties": { "stop_id": "de:09162:1152", "stop_name": "Steinerstraße", "stop_lat": 48.104394712039401, "stop_lon": 11.5403420463405, "location_type": 1.0, "parent_station": null }, "geometry": { "type": "Point", "coordinates": [ 11.5403420463405, 48.104394712039401 ] } },
{ "type": "Feature", "properties": { "stop_id": "de:09162:1154", "stop_name": "Rupert-Mayer-Straße", "stop_lat": 48.096367785903503, "stop_lon": 11.5410786648736, "location_type": 1.0, "parent_station": null }, "geometry": { "type": "Point", "coordinates": [ 11.5410786648736, 48.096367785903503 ] } },
{ "type": "Feature", "properties": { "stop_id": "de:09162:1156", "stop_name": "Krankenhaus Martha Maria", "stop_lat": 48.086293360239601, "stop_lon": 11.5342155361019, "location_type": 1.0, "parent_station": null }, "geometry": { "type": "Point", "coordinates": [ 11.5342155361019, 48.086293360239601 ] } },
{ "type": "Feature", "properties": { "stop_id": "de:09162:1157", "stop_name": "Flößergasse", "stop_lat": 48.103404912216199, "stop_lon": 11.5380154097543, "location_type": 1.0, "parent_station": null }, "geometry": { "type": "Point", "coordinates": [ 11.5380154097543, 48.103404912216199 ] } },
{ "type": "Feature", "properties": { "stop_id": "de:09162:1158", "stop_name": "Tölzer Straße", "stop_lat": 48.100417400810798, "stop_lon": 11.538257954881001, "location_type": 1.0, "parent_station": null }, "geometry": { "type": "Point", "coordinates": [ 11.538257954881001, 48.100417400810798 ] } },
{ "type": "Feature", "properties": { "stop_id": "de:09162:1159", "stop_name": "Heimeranplatz Süd", "stop_lat": 48.132119355560597, "stop_lon": 11.5294364987897, "location_type": 1.0, "parent_station": null }, "geometry": { "type": "Point", "coordinates": [ 11.5294364987897, 48.132119355560597 ] } },
{ "type": "Feature", "properties": { "stop_id": "de:09162:116", "stop_name": "Schweigerstraße", "stop_lat": 48.126543244597002, "stop_lon": 11.5834342305257, "location_type": 1.0, "parent_station": null }, "geometry": { "type": "Point", "coordinates": [ 11.5834342305257, 48.126543244597002 ] } },
{ "type": "Feature", "properties": { "stop_id": "de:09162:1160", "stop_name": "Untersbergstraße", "stop_lat": 48.112516349442501, "stop_lon": 11.587710211278701, "location_type": 1.0, "parent_station": null }, "geometry": { "type": "Point", "coordinates": [ 11.587710211278701, 48.112516349442501 ] } },
{ "type": "Feature", "properties": { "stop_id": "de:09162:1161", "stop_name": "Wolfratshauser Straße", "stop_lat": 48.090163757226797, "stop_lon": 11.5375842184178, "location_type": 1.0, "parent_station": null }, "geometry": { "type": "Point", "coordinates": [ 11.5375842184178, 48.090163757226797 ] } },
{ "type": "Feature", "properties": { "stop_id": "de:09162:1162", "stop_name": "Neunkirchner Straße", "stop_lat": 48.092755860244999, "stop_lon": 11.5399737370739, "location_type": 1.0, "parent_station": null }, "geometry": { "type": "Point", "coordinates": [ 11.5399737370739, 48.092755860244999 ] } },
{ "type": "Feature", "properties": { "stop_id": "de:09162:1163", "stop_name": "Jakob-Gelb-Platz", "stop_lat": 48.113625926975701, "stop_lon": 11.5719268117345, "location_type": 1.0, "parent_station": null }, "geometry": { "type": "Point", "coordinates": [ 11.5719268117345, 48.113625926975701 ] } },
{ "type": "Feature", "properties": { "stop_id": "de:09162:1165", "stop_name": "Tierpark (Alemannenstraße)", "stop_lat": 48.100459395146203, "stop_lon": 11.558488015082199, "location_type": 1.0, "parent_station": null }, "geometry": { "type": "Point", "coordinates": [ 11.558488015082199, 48.100459395146203 ] } },
{ "type": "Feature", "properties": { "stop_id": "de:09162:1166", "stop_name": "Wilhelm-Kuhnert-Straße", "stop_lat": 48.103728848802, "stop_lon": 11.5616141522714, "location_type": 1.0, "parent_station": null }, "geometry": { "type": "Point", "coordinates": [ 11.5616141522714, 48.103728848802 ] } },
{ "type": "Feature", "properties": { "stop_id": "de:09162:1167", "stop_name": "Lebscheestraße", "stop_lat": 48.1078078755395, "stop_lon": 11.565018767198699, "location_type": 1.0, "parent_station": null }, "geometry": { "type": "Point", "coordinates": [ 11.565018767198699, 48.1078078755395 ] } },
{ "type": "Feature", "properties": { "stop_id": "de:09162:1168", "stop_name": "Ludmillastraße", "stop_lat": 48.110063198397903, "stop_lon": 11.567030993435401, "location_type": 1.0, "parent_station": null }, "geometry": { "type": "Point", "coordinates": [ 11.567030993435401, 48.110063198397903 ] } },
{ "type": "Feature", "properties": { "stop_id": "de:09162:1169", "stop_name": "Winterstraße", "stop_lat": 48.115635100993103, "stop_lon": 11.5728610596301, "location_type": 1.0, "parent_station": null }, "geometry": { "type": "Point", "coordinates": [ 11.5728610596301, 48.115635100993103 ] } },
{ "type": "Feature", "properties": { "stop_id": "de:09162:117", "stop_name": "Taubenstraße", "stop_lat": 48.121872036212899, "stop_lon": 11.5788707888817, "location_type": 1.0, "parent_station": null }, "geometry": { "type": "Point", "coordinates": [ 11.5788707888817, 48.121872036212899 ] } },
{ "type": "Feature", "properties": { "stop_id": "de:09162:1170", "stop_name": "Silberhornstraße", "stop_lat": 48.115131315485201, "stop_lon": 11.579715205248901, "location_type": 1.0, "parent_station": null }, "geometry": { "type": "Point", "coordinates": [ 11.579715205248901, 48.115131315485201 ] } },
{ "type": "Feature", "properties": { "stop_id": "de:09162:1171", "stop_name": "Theodolindenstraße", "stop_lat": 48.0885316253312, "stop_lon": 11.5596109091875, "location_type": 1.0, "parent_station": null }, "geometry": { "type": "Point", "coordinates": [ 11.5596109091875, 48.0885316253312 ] } },
{ "type": "Feature", "properties": { "stop_id": "de:09162:1172", "stop_name": "Autharistraße", "stop_lat": 48.090403772254497, "stop_lon": 11.563850957329199, "location_type": 1.0, "parent_station": null }, "geometry": { "type": "Point", "coordinates": [ 11.563850957329199, 48.090403772254497 ] } },
{ "type": "Feature", "properties": { "stop_id": "de:09162:1173", "stop_name": "Griechenstraße", "stop_lat": 48.093157864518901, "stop_lon": 11.569851703427901, "location_type": 1.0, "parent_station": null }, "geometry": { "type": "Point", "coordinates": [ 11.569851703427901, 48.093157864518901 ] } },
{ "type": "Feature", "properties": { "stop_id": "de:09162:1174", "stop_name": "Säbener Straße", "stop_lat": 48.0948378483683, "stop_lon": 11.573876155901299, "location_type": 1.0, "parent_station": null }, "geometry": { "type": "Point", "coordinates": [ 11.573876155901299, 48.0948378483683 ] } },
{ "type": "Feature", "properties": { "stop_id": "de:09162:1177", "stop_name": "Stadelheimer Straße", "stop_lat": 48.099925464613897, "stop_lon": 11.5861471426841, "location_type": 1.0, "parent_station": null }, "geometry": { "type": "Point", "coordinates": [ 11.5861471426841, 48.099925464613897 ] } },
{ "type": "Feature", "properties": { "stop_id": "de:09162:1178", "stop_name": "Frasdorfer Straße", "stop_lat": 48.101173293597903, "stop_lon": 11.590944146302, "location_type": 1.0, "parent_station": null }, "geometry": { "type": "Point", "coordinates": [ 11.590944146302, 48.101173293597903 ] } },
{ "type": "Feature", "properties": { "stop_id": "de:09162:1179", "stop_name": "Kiefernstraße", "stop_lat": 48.087577524240899, "stop_lon": 11.5994152594324, "location_type": 1.0, "parent_station": null }, "geometry": { "type": "Point", "coordinates": [ 11.5994152594324, 48.087577524240899 ] } },
{ "type": "Feature", "properties": { "stop_id": "de:09162:118", "stop_name": "Kirchenstraße", "stop_lat": 48.132766864693302, "stop_lon": 11.605101595181701, "location_type": 1.0, "parent_station": null }, "geometry": { "type": "Point", "coordinates": [ 11.605101595181701, 48.132766864693302 ] } },
{ "type": "Feature", "properties": { "stop_id": "de:09162:1180", "stop_name": "Candidplatz", "stop_lat": 48.111658659580101, "stop_lon": 11.5703996757513, "location_type": 1.0, "parent_station": null }, "geometry": { "type": "Point", "coordinates": [ 11.5703996757513, 48.111658659580101 ] } },
{ "type": "Feature", "properties": { "stop_id": "de:09162:1181", "stop_name": "Minnewitstraße", "stop_lat": 48.091051807233796, "stop_lon": 11.597295235361599, "location_type": 1.0, "parent_station": null }, "geometry": { "type": "Point", "coordinates": [ 11.597295235361599, 48.091051807233796 ] } },
{ "type": "Feature", "properties": { "stop_id": "de:09162:1182", "stop_name": "Lincolnstraße", "stop_lat": 48.094105862153, "stop_lon": 11.590611769646801, "location_type": 1.0, "parent_station": null }, "geometry": { "type": "Point", "coordinates": [ 11.590611769646801, 48.094105862153 ] } },
{ "type": "Feature", "properties": { "stop_id": "de:09162:1183", "stop_name": "Stettnerstraße", "stop_lat": 48.096985747764798, "stop_lon": 11.586874778064301, "location_type": 1.0, "parent_station": null }, "geometry": { "type": "Point", "coordinates": [ 11.586874778064301, 48.096985747764798 ] } },
{ "type": "Feature", "properties": { "stop_id": "de:09162:1184", "stop_name": "Soyerhofstraße", "stop_lat": 48.1015932292324, "stop_lon": 11.581952010306701, "location_type": 1.0, "parent_station": null }, "geometry": { "type": "Point", "coordinates": [ 11.581952010306701, 48.1015932292324 ] } },
{ "type": "Feature", "properties": { "stop_id": "de:09162:1185", "stop_name": "Leifstraße", "stop_lat": 48.091453824829401, "stop_lon": 11.5937648562945, "location_type": 1.0, "parent_station": null }, "geometry": { "type": "Point", "coordinates": [ 11.5937648562945, 48.091453824829401 ] } },
{ "type": "Feature", "properties": { "stop_id": "de:09162:1187", "stop_name": "Silberhorn-/Ichostraße", "stop_lat": 48.115964957876002, "stop_lon": 11.579670289484699, "location_type": 1.0, "parent_station": null }, "geometry": { "type": "Point", "coordinates": [ 11.579670289484699, 48.115964957876002 ] } },
{ "type": "Feature", "properties": { "stop_id": "de:09162:1189", "stop_name": "Peter-Auzinger-Straße", "stop_lat": 48.0986656065473, "stop_lon": 11.582733544604, "location_type": 1.0, "parent_station": null }, "geometry": { "type": "Point", "coordinates": [ 11.582733544604, 48.0986656065473 ] } },
{ "type": "Feature", "properties": { "stop_id": "de:09162:119", "stop_name": "Boschbrücke", "stop_lat": 48.130938229908701, "stop_lon": 11.582392184795999, "location_type": 1.0, "parent_station": null }, "geometry": { "type": "Point", "coordinates": [ 11.582392184795999, 48.130938229908701 ] } },
{ "type": "Feature", "properties": { "stop_id": "de:09162:1190", "stop_name": "Wettersteinplatz", "stop_lat": 48.108269744928499, "stop_lon": 11.575663803316999, "location_type": 1.0, "parent_station": null }, "geometry": { "type": "Point", "coordinates": [ 11.575663803316999, 48.108269744928499 ] } },
{ "type": "Feature", "properties": { "stop_id": "de:09162:1191", "stop_name": "Gerhardstraße", "stop_lat": 48.1129301946754, "stop_lon": 11.565997930858501, "location_type": 1.0, "parent_station": null }, "geometry": { "type": "Point", "coordinates": [ 11.565997930858501, 48.1129301946754 ] } },
{ "type": "Feature", "properties": { "stop_id": "de:09162:1192", "stop_name": "Siegestor", "stop_lat": 48.1519546087411, "stop_lon": 11.581934044001001, "location_type": 1.0, "parent_station": null }, "geometry": { "type": "Point", "coordinates": [ 11.581934044001001, 48.1519546087411 ] } },
{ "type": "Feature", "properties": { "stop_id": "de:09162:12", "stop_name": "Hochschule M. (Lothstr.)", "stop_lat": 48.154267922720699, "stop_lon": 11.5538347419098, "location_type": 1.0, "parent_station": null }, "geometry": { "type": "Point", "coordinates": [ 11.5538347419098, 48.154267922720699 ] } },
{ "type": "Feature", "properties": { "stop_id": "de:09162:120", "stop_name": "Theresienstraße", "stop_lat": 48.151421213261301, "stop_lon": 11.5644079128054, "location_type": 1.0, "parent_station": null }, "geometry": { "type": "Point", "coordinates": [ 11.5644079128054, 48.151421213261301 ] } },
{ "type": "Feature", "properties": { "stop_id": "de:09162:1200", "stop_name": "St.-Quirin-Platz", "stop_lat": 48.104676651531598, "stop_lon": 11.5811614928566, "location_type": 1.0, "parent_station": null }, "geometry": { "type": "Point", "coordinates": [ 11.5811614928566, 48.104676651531598 ] } },
{ "type": "Feature", "properties": { "stop_id": "de:09162:1201", "stop_name": "Hauzenberger Straße", "stop_lat": 48.137503025791801, "stop_lon": 11.5220433640004, "location_type": 1.0, "parent_station": null }, "geometry": { "type": "Point", "coordinates": [ 11.5220433640004, 48.137503025791801 ] } },
{ "type": "Feature", "properties": { "stop_id": "de:09162:1202", "stop_name": "Lautensackstraße", "stop_lat": 48.139996828701399, "stop_lon": 11.518360271335, "location_type": 1.0, "parent_station": null }, "geometry": { "type": "Point", "coordinates": [ 11.518360271335, 48.139996828701399 ] } },
{ "type": "Feature", "properties": { "stop_id": "de:09162:1203", "stop_name": "Schäufeleinstraße", "stop_lat": 48.141597354724198, "stop_lon": 11.512260710554999, "location_type": 1.0, "parent_station": null }, "geometry": { "type": "Point", "coordinates": [ 11.512260710554999, 48.141597354724198 ] } },
{ "type": "Feature", "properties": { "stop_id": "de:09162:1204", "stop_name": "Agnes-Bernauer-Straße", "stop_lat": 48.139349410742199, "stop_lon": 11.5111378164497, "location_type": 1.0, "parent_station": null }, "geometry": { "type": "Point", "coordinates": [ 11.5111378164497, 48.139349410742199 ] } },
{ "type": "Feature", "properties": { "stop_id": "de:09162:1205", "stop_name": "Elsenheimerstraße", "stop_lat": 48.136076228303303, "stop_lon": 11.523974741861499, "location_type": 1.0, "parent_station": null }, "geometry": { "type": "Point", "coordinates": [ 11.523974741861499, 48.136076228303303 ] } },
{ "type": "Feature", "properties": { "stop_id": "de:09162:1206", "stop_name": "Am Lokschuppen", "stop_lat": 48.140722166902201, "stop_lon": 11.5242532195997, "location_type": 1.0, "parent_station": null }, "geometry": { "type": "Point", "coordinates": [ 11.5242532195997, 48.140722166902201 ] } },
{ "type": "Feature", "properties": { "stop_id": "de:09162:1208", "stop_name": "Fachnerstraße", "stop_lat": 48.129841017780997, "stop_lon": 11.5169768657973, "location_type": 1.0, "parent_station": null }, "geometry": { "type": "Point", "coordinates": [ 11.5169768657973, 48.129841017780997 ] } },
{ "type": "Feature", "properties": { "stop_id": "de:09162:121", "stop_name": "Reitmorstr./Sammlung Schack", "stop_lat": 48.142034943039903, "stop_lon": 11.593684007918901, "location_type": 1.0, "parent_station": null }, "geometry": { "type": "Point", "coordinates": [ 11.593684007918901, 48.142034943039903 ] } },
{ "type": "Feature", "properties": { "stop_id": "de:09162:1210", "stop_name": "Mangfallplatz", "stop_lat": 48.097093740337399, "stop_lon": 11.579230114995401, "location_type": 1.0, "parent_station": null }, "geometry": { "type": "Point", "coordinates": [ 11.579230114995401, 48.097093740337399 ] } },
{ "type": "Feature", "properties": { "stop_id": "de:09162:1211", "stop_name": "Mangfallplatz Süd", "stop_lat": 48.096505778031201, "stop_lon": 11.5776939958594, "location_type": 1.0, "parent_station": null }, "geometry": { "type": "Point", "coordinates": [ 11.5776939958594, 48.096505778031201 ] } },
{ "type": "Feature", "properties": { "stop_id": "de:09162:1212", "stop_name": "Säulingstraße", "stop_lat": 48.127472638469101, "stop_lon": 11.512107996956701, "location_type": 1.0, "parent_station": null }, "geometry": { "type": "Point", "coordinates": [ 11.512107996956701, 48.127472638469101 ] } },
{ "type": "Feature", "properties": { "stop_id": "de:09162:1213", "stop_name": "Stegener Weg", "stop_lat": 48.125883664549399, "stop_lon": 11.5082452412344, "location_type": 1.0, "parent_station": null }, "geometry": { "type": "Point", "coordinates": [ 11.5082452412344, 48.125883664549399 ] } },
{ "type": "Feature", "properties": { "stop_id": "de:09162:1214", "stop_name": "Hans-Thonauer-Straße", "stop_lat": 48.134841237120199, "stop_lon": 11.5170397478672, "location_type": 1.0, "parent_station": null }, "geometry": { "type": "Point", "coordinates": [ 11.5170397478672, 48.134841237120199 ] } },
{ "type": "Feature", "properties": { "stop_id": "de:09162:1215", "stop_name": "Veldener Straße", "stop_lat": 48.145061992927999, "stop_lon": 11.482822918690299, "location_type": 1.0, "parent_station": null }, "geometry": { "type": "Point", "coordinates": [ 11.482822918690299, 48.145061992927999 ] } },
{ "type": "Feature", "properties": { "stop_id": "de:09162:1216", "stop_name": "Siglstraße", "stop_lat": 48.134937159829498, "stop_lon": 11.5142190378746, "location_type": 1.0, "parent_station": null }, "geometry": { "type": "Point", "coordinates": [ 11.5142190378746, 48.134937159829498 ] } },
{ "type": "Feature", "properties": { "stop_id": "de:09162:1217", "stop_name": "Hansastraße", "stop_lat": 48.1309921905561, "stop_lon": 11.5311253315241, "location_type": 1.0, "parent_station": null }, "geometry": { "type": "Point", "coordinates": [ 11.5311253315241, 48.1309921905561 ] } },
{ "type": "Feature", "properties": { "stop_id": "de:09162:1218", "stop_name": "Hansapark", "stop_lat": 48.128336060286699, "stop_lon": 11.53449401384, "location_type": 1.0, "parent_station": null }, "geometry": { "type": "Point", "coordinates": [ 11.53449401384, 48.128336060286699 ] } },
{ "type": "Feature", "properties": { "stop_id": "de:09162:122", "stop_name": "Ludwigsbrücke", "stop_lat": 48.132533042892803, "stop_lon": 11.5853206926226, "location_type": 1.0, "parent_station": null }, "geometry": { "type": "Point", "coordinates": [ 11.5853206926226, 48.132533042892803 ] } },
{ "type": "Feature", "properties": { "stop_id": "de:09162:1220", "stop_name": "Josephsburg", "stop_lat": 48.126585217586097, "stop_lon": 11.6338117516661, "location_type": 1.0, "parent_station": null }, "geometry": { "type": "Point", "coordinates": [ 11.6338117516661, 48.126585217586097 ] } },
{ "type": "Feature", "properties": { "stop_id": "de:09162:1222", "stop_name": "Garmischer Straße", "stop_lat": 48.130194766328202, "stop_lon": 11.5285022508941, "location_type": 1.0, "parent_station": null }, "geometry": { "type": "Point", "coordinates": [ 11.5285022508941, 48.130194766328202 ] } },
{ "type": "Feature", "properties": { "stop_id": "de:09162:1224", "stop_name": "Siegenburger Straße", "stop_lat": 48.126441310052101, "stop_lon": 11.522303875432801, "location_type": 1.0, "parent_station": null }, "geometry": { "type": "Point", "coordinates": [ 11.522303875432801, 48.126441310052101 ] } },
{ "type": "Feature", "properties": { "stop_id": "de:09162:1226", "stop_name": "Hinterbärenbadstraße", "stop_lat": 48.120534757143403, "stop_lon": 11.518234507195199, "location_type": 1.0, "parent_station": null }, "geometry": { "type": "Point", "coordinates": [ 11.518234507195199, 48.120534757143403 ] } },
{ "type": "Feature", "properties": { "stop_id": "de:09162:123", "stop_name": "Königinstraße", "stop_lat": 48.143785259000602, "stop_lon": 11.585006282273101, "location_type": 1.0, "parent_station": null }, "geometry": { "type": "Point", "coordinates": [ 11.585006282273101, 48.143785259000602 ] } },
{ "type": "Feature", "properties": { "stop_id": "de:09162:1230", "stop_name": "Kreillerstraße", "stop_lat": 48.125775732462401, "stop_lon": 11.646738508606401, "location_type": 1.0, "parent_station": null }, "geometry": { "type": "Point", "coordinates": [ 11.646738508606401, 48.125775732462401 ] } },
{ "type": "Feature", "properties": { "stop_id": "de:09162:1232", "stop_name": "Baumgartnerstraße", "stop_lat": 48.126141501394599, "stop_lon": 11.536039116128901, "location_type": 1.0, "parent_station": null }, "geometry": { "type": "Point", "coordinates": [ 11.536039116128901, 48.126141501394599 ] } },
{ "type": "Feature", "properties": { "stop_id": "de:09162:1234", "stop_name": "Fuggerstraße", "stop_lat": 48.123880887771897, "stop_lon": 11.5347455421196, "location_type": 1.0, "parent_station": null }, "geometry": { "type": "Point", "coordinates": [ 11.5347455421196, 48.123880887771897 ] } },
{ "type": "Feature", "properties": { "stop_id": "de:09162:1236", "stop_name": "Ortlerstraße", "stop_lat": 48.120552747675802, "stop_lon": 11.5347994410367, "location_type": 1.0, "parent_station": null }, "geometry": { "type": "Point", "coordinates": [ 11.5347994410367, 48.120552747675802 ] } },
{ "type": "Feature", "properties": { "stop_id": "de:09162:124", "stop_name": "Von-der-Tann-Straße", "stop_lat": 48.145020035040702, "stop_lon": 11.578682142671999, "location_type": 1.0, "parent_station": null }, "geometry": { "type": "Point", "coordinates": [ 11.578682142671999, 48.145020035040702 ] } },
{ "type": "Feature", "properties": { "stop_id": "de:09162:1240", "stop_name": "Moosfeld", "stop_lat": 48.130770351976501, "stop_lon": 11.670993021280999, "location_type": 1.0, "parent_station": null }, "geometry": { "type": "Point", "coordinates": [ 11.670993021280999, 48.130770351976501 ] } },
{ "type": "Feature", "properties": { "stop_id": "de:09162:125", "stop_name": "Türkenstraße", "stop_lat": 48.1502884786293, "stop_lon": 11.5759512642079, "location_type": 1.0, "parent_station": null }, "geometry": { "type": "Point", "coordinates": [ 11.5759512642079, 48.1502884786293 ] } },
{ "type": "Feature", "properties": { "stop_id": "de:09162:1250", "stop_name": "Messestadt West", "stop_lat": 48.1334323516826, "stop_lon": 11.6907559575344, "location_type": 1.0, "parent_station": null }, "geometry": { "type": "Point", "coordinates": [ 11.6907559575344, 48.1334323516826 ] } },
{ "type": "Feature", "properties": { "stop_id": "de:09162:126", "stop_name": "Arcisstraße", "stop_lat": 48.151768819933601, "stop_lon": 11.570705102947899, "location_type": 1.0, "parent_station": null }, "geometry": { "type": "Point", "coordinates": [ 11.570705102947899, 48.151768819933601 ] } },
{ "type": "Feature", "properties": { "stop_id": "de:09162:1260", "stop_name": "Messestadt Ost", "stop_lat": 48.133384388944798, "stop_lon": 11.7032605062911, "location_type": 1.0, "parent_station": null }, "geometry": { "type": "Point", "coordinates": [ 11.7032605062911, 48.133384388944798 ] } },
{ "type": "Feature", "properties": { "stop_id": "de:09162:127", "stop_name": "Luisenstraße", "stop_lat": 48.152517964238598, "stop_lon": 11.5680640560123, "location_type": 1.0, "parent_station": null }, "geometry": { "type": "Point", "coordinates": [ 11.5680640560123, 48.152517964238598 ] } },
{ "type": "Feature", "properties": { "stop_id": "de:09162:128", "stop_name": "Augustenstraße", "stop_lat": 48.153117271808199, "stop_lon": 11.5659080993301, "location_type": 1.0, "parent_station": null }, "geometry": { "type": "Point", "coordinates": [ 11.5659080993301, 48.153117271808199 ] } },
{ "type": "Feature", "properties": { "stop_id": "de:09162:129", "stop_name": "Roecklplatz", "stop_lat": 48.120702668534101, "stop_lon": 11.561659068035601, "location_type": 1.0, "parent_station": null }, "geometry": { "type": "Point", "coordinates": [ 11.561659068035601, 48.120702668534101 ] } },
{ "type": "Feature", "properties": { "stop_id": "de:09162:13", "stop_name": "Sandstraße", "stop_lat": 48.150582152971801, "stop_lon": 11.5581286889685, "location_type": 1.0, "parent_station": null }, "geometry": { "type": "Point", "coordinates": [ 11.5581286889685, 48.150582152971801 ] } },
{ "type": "Feature", "properties": { "stop_id": "de:09162:130", "stop_name": "Josephsplatz", "stop_lat": 48.155658258147, "stop_lon": 11.5670579428939, "location_type": 1.0, "parent_station": null }, "geometry": { "type": "Point", "coordinates": [ 11.5670579428939, 48.155658258147 ] } },
{ "type": "Feature", "properties": { "stop_id": "de:09162:1301", "stop_name": "Baierbrunner Straße", "stop_lat": 48.093391865559497, "stop_lon": 11.5304246456024, "location_type": 1.0, "parent_station": null }, "geometry": { "type": "Point", "coordinates": [ 11.5304246456024, 48.093391865559497 ] } },
{ "type": "Feature", "properties": { "stop_id": "de:09162:1302", "stop_name": "Hofmannstraße", "stop_lat": 48.100465394334101, "stop_lon": 11.5292748020386, "location_type": 1.0, "parent_station": null }, "geometry": { "type": "Point", "coordinates": [ 11.5292748020386, 48.100465394334101 ] } },
{ "type": "Feature", "properties": { "stop_id": "de:09162:1303", "stop_name": "Ratzingerplatz", "stop_lat": 48.099349533328699, "stop_lon": 11.523588466289301, "location_type": 1.0, "parent_station": null }, "geometry": { "type": "Point", "coordinates": [ 11.523588466289301, 48.099349533328699 ] } },
{ "type": "Feature", "properties": { "stop_id": "de:09162:1304", "stop_name": "Ringelnatzweg", "stop_lat": 48.075364667427998, "stop_lon": 11.5232291401756, "location_type": 1.0, "parent_station": null }, "geometry": { "type": "Point", "coordinates": [ 11.5232291401756, 48.075364667427998 ] } },
{ "type": "Feature", "properties": { "stop_id": "de:09162:1305", "stop_name": "Drachenseestraße", "stop_lat": 48.116870554066402, "stop_lon": 11.5317451690703, "location_type": 1.0, "parent_station": null }, "geometry": { "type": "Point", "coordinates": [ 11.5317451690703, 48.116870554066402 ] } },
{ "type": "Feature", "properties": { "stop_id": "de:09162:1306", "stop_name": "Fernpaßstraße", "stop_lat": 48.115005368336398, "stop_lon": 11.5227979488392, "location_type": 1.0, "parent_station": null }, "geometry": { "type": "Point", "coordinates": [ 11.5227979488392, 48.115005368336398 ] } },
{ "type": "Feature", "properties": { "stop_id": "de:09162:1307", "stop_name": "Luise-Kiesselbach-Platz", "stop_lat": 48.113374024989398, "stop_lon": 11.5172373772297, "location_type": 1.0, "parent_station": null }, "geometry": { "type": "Point", "coordinates": [ 11.5172373772297, 48.113374024989398 ] } },
{ "type": "Feature", "properties": { "stop_id": "de:09162:1308", "stop_name": "Ettalstraße", "stop_lat": 48.113296055076702, "stop_lon": 11.5138417454553, "location_type": 1.0, "parent_station": null }, "geometry": { "type": "Point", "coordinates": [ 11.5138417454553, 48.113296055076702 ] } },
{ "type": "Feature", "properties": { "stop_id": "de:09162:1309", "stop_name": "Werdenfelsstraße", "stop_lat": 48.112534342782801, "stop_lon": 11.5078050667451, "location_type": 1.0, "parent_station": null }, "geometry": { "type": "Point", "coordinates": [ 11.5078050667451, 48.112534342782801 ] } },
{ "type": "Feature", "properties": { "stop_id": "de:09162:131", "stop_name": "St.-Jakobs-Platz", "stop_lat": 48.135320848874599, "stop_lon": 11.572510716669299, "location_type": 1.0, "parent_station": null }, "geometry": { "type": "Point", "coordinates": [ 11.572510716669299, 48.135320848874599 ] } },
{ "type": "Feature", "properties": { "stop_id": "de:09162:1310", "stop_name": "Siemenswerke", "stop_lat": 48.094549855035197, "stop_lon": 11.5328321305642, "location_type": 1.0, "parent_station": null }, "geometry": { "type": "Point", "coordinates": [ 11.5328321305642, 48.094549855035197 ] } },
{ "type": "Feature", "properties": { "stop_id": "de:09162:1311", "stop_name": "Waldfriedhof", "stop_lat": 48.112138487840703, "stop_lon": 11.5023163603584, "location_type": 1.0, "parent_station": null }, "geometry": { "type": "Point", "coordinates": [ 11.5023163603584, 48.112138487840703 ] } },
{ "type": "Feature", "properties": { "stop_id": "de:09162:1312", "stop_name": "Waldfriedhof (Wendeschleife)", "stop_lat": 48.112276437636403, "stop_lon": 11.5029900968216, "location_type": 1.0, "parent_station": null }, "geometry": { "type": "Point", "coordinates": [ 11.5029900968216, 48.112276437636403 ] } },
{ "type": "Feature", "properties": { "stop_id": "de:09162:1313", "stop_name": "Grünstraße", "stop_lat": 48.109163480400397, "stop_lon": 11.526265445836399, "location_type": 1.0, "parent_station": null }, "geometry": { "type": "Point", "coordinates": [ 11.526265445836399, 48.109163480400397 ] } },
{ "type": "Feature", "properties": { "stop_id": "de:09162:1315", "stop_name": "Pilsenseestraße", "stop_lat": 48.109355421561602, "stop_lon": 11.5201569019035, "location_type": 1.0, "parent_station": null }, "geometry": { "type": "Point", "coordinates": [ 11.5201569019035, 48.109355421561602 ] } },
{ "type": "Feature", "properties": { "stop_id": "de:09162:1316", "stop_name": "Höglwörther Straße", "stop_lat": 48.106740161583403, "stop_lon": 11.522393706961299, "location_type": 1.0, "parent_station": null }, "geometry": { "type": "Point", "coordinates": [ 11.522393706961299, 48.106740161583403 ] } },
{ "type": "Feature", "properties": { "stop_id": "de:09162:1317", "stop_name": "Murnauer Straße", "stop_lat": 48.101965169358301, "stop_lon": 11.5242532195997, "location_type": 1.0, "parent_station": null }, "geometry": { "type": "Point", "coordinates": [ 11.5242532195997, 48.101965169358301 ] } },
{ "type": "Feature", "properties": { "stop_id": "de:09162:1318", "stop_name": "Diefenbachstraße", "stop_lat": 48.080544233017399, "stop_lon": 11.523543550525099, "location_type": 1.0, "parent_station": null }, "geometry": { "type": "Point", "coordinates": [ 11.523543550525099, 48.080544233017399 ] } },
{ "type": "Feature", "properties": { "stop_id": "de:09162:1319", "stop_name": "Aichacher Straße", "stop_lat": 48.104868609449802, "stop_lon": 11.518234507195199, "location_type": 1.0, "parent_station": null }, "geometry": { "type": "Point", "coordinates": [ 11.518234507195199, 48.104868609449802 ] } },
{ "type": "Feature", "properties": { "stop_id": "de:09162:132", "stop_name": "Hirschauer Straße", "stop_lat": 48.150797912642297, "stop_lon": 11.5953099585834, "location_type": 1.0, "parent_station": null }, "geometry": { "type": "Point", "coordinates": [ 11.5953099585834, 48.150797912642297 ] } },
{ "type": "Feature", "properties": { "stop_id": "de:09162:1320", "stop_name": "Solln Bahnhof", "stop_lat": 48.079103849970998, "stop_lon": 11.5269391822996, "location_type": 1.0, "parent_station": null }, "geometry": { "type": "Point", "coordinates": [ 11.5269391822996, 48.079103849970998 ] } },
{ "type": "Feature", "properties": { "stop_id": "de:09162:1321", "stop_name": "Adunistraße", "stop_lat": 48.109493378828397, "stop_lon": 11.534269435019, "location_type": 1.0, "parent_station": null }, "geometry": { "type": "Point", "coordinates": [ 11.534269435019, 48.109493378828397 ] } },
{ "type": "Feature", "properties": { "stop_id": "de:09162:1322", "stop_name": "Schneemannstraße", "stop_lat": 48.105666426865803, "stop_lon": 11.532517720214701, "location_type": 1.0, "parent_station": null }, "geometry": { "type": "Point", "coordinates": [ 11.532517720214701, 48.105666426865803 ] } },
{ "type": "Feature", "properties": { "stop_id": "de:09162:1323", "stop_name": "Zielstattstraße", "stop_lat": 48.102583063940997, "stop_lon": 11.5301102352529, "location_type": 1.0, "parent_station": null }, "geometry": { "type": "Point", "coordinates": [ 11.5301102352529, 48.102583063940997 ] } },
{ "type": "Feature", "properties": { "stop_id": "de:09162:1324", "stop_name": "Geisenhausenerstraße", "stop_lat": 48.0987915937433, "stop_lon": 11.5187106142959, "location_type": 1.0, "parent_station": null }, "geometry": { "type": "Point", "coordinates": [ 11.5187106142959, 48.0987915937433 ] } },
{ "type": "Feature", "properties": { "stop_id": "de:09162:1325", "stop_name": "Sollner Straße", "stop_lat": 48.076913190115697, "stop_lon": 11.5252144169538, "location_type": 1.0, "parent_station": null }, "geometry": { "type": "Point", "coordinates": [ 11.5252144169538, 48.076913190115697 ] } },
{ "type": "Feature", "properties": { "stop_id": "de:09162:1326", "stop_name": "Melchiorstraße", "stop_lat": 48.072381529182501, "stop_lon": 11.519932323082401, "location_type": 1.0, "parent_station": null }, "geometry": { "type": "Point", "coordinates": [ 11.519932323082401, 48.072381529182501 ] } },
{ "type": "Feature", "properties": { "stop_id": "de:09162:1327", "stop_name": "Gmunder Straße", "stop_lat": 48.095683819455701, "stop_lon": 11.527594952456999, "location_type": 1.0, "parent_station": null }, "geometry": { "type": "Point", "coordinates": [ 11.527594952456999, 48.095683819455701 ] } },
{ "type": "Feature", "properties": { "stop_id": "de:09162:1328", "stop_name": "Friedastraße", "stop_lat": 48.081252406560097, "stop_lon": 11.529014290606201, "location_type": 1.0, "parent_station": null }, "geometry": { "type": "Point", "coordinates": [ 11.529014290606201, 48.081252406560097 ] } },
{ "type": "Feature", "properties": { "stop_id": "de:09162:1329", "stop_name": "Solln Bf. Wendeschleife", "stop_lat": 48.081444451942097, "stop_lon": 11.5275769861514, "location_type": 1.0, "parent_station": null }, "geometry": { "type": "Point", "coordinates": [ 11.5275769861514, 48.081444451942097 ] } },
{ "type": "Feature", "properties": { "stop_id": "de:09162:133", "stop_name": "Galileiplatz", "stop_lat": 48.144246804977499, "stop_lon": 11.6066466974706, "location_type": 1.0, "parent_station": null }, "geometry": { "type": "Point", "coordinates": [ 11.6066466974706, 48.144246804977499 ] } },
{ "type": "Feature", "properties": { "stop_id": "de:09162:1330", "stop_name": "Partnachplatz", "stop_lat": 48.1169725076047, "stop_lon": 11.5264361257404, "location_type": 1.0, "parent_station": null }, "geometry": { "type": "Point", "coordinates": [ 11.5264361257404, 48.1169725076047 ] } },
{ "type": "Feature", "properties": { "stop_id": "de:09162:1331", "stop_name": "Josephinenstraße", "stop_lat": 48.0824106693928, "stop_lon": 11.537009296635899, "location_type": 1.0, "parent_station": null }, "geometry": { "type": "Point", "coordinates": [ 11.537009296635899, 48.0824106693928 ] } },
{ "type": "Feature", "properties": { "stop_id": "de:09162:1332", "stop_name": "Weltistraße", "stop_lat": 48.087499515192903, "stop_lon": 11.5072301449632, "location_type": 1.0, "parent_station": null }, "geometry": { "type": "Point", "coordinates": [ 11.5072301449632, 48.087499515192903 ] } },
{ "type": "Feature", "properties": { "stop_id": "de:09162:1333", "stop_name": "Carola-Neher-Straße", "stop_lat": 48.090613784484702, "stop_lon": 11.5328500968699, "location_type": 1.0, "parent_station": null }, "geometry": { "type": "Point", "coordinates": [ 11.5328500968699, 48.090613784484702 ] } },
{ "type": "Feature", "properties": { "stop_id": "de:09162:1334", "stop_name": "Fertigstraße", "stop_lat": 48.088855655637197, "stop_lon": 11.5091615228243, "location_type": 1.0, "parent_station": null }, "geometry": { "type": "Point", "coordinates": [ 11.5091615228243, 48.088855655637197 ] } },
{ "type": "Feature", "properties": { "stop_id": "de:09162:1335", "stop_name": "Johann-Clanze-Straße", "stop_lat": 48.112750262375002, "stop_lon": 11.5338472268354, "location_type": 1.0, "parent_station": null }, "geometry": { "type": "Point", "coordinates": [ 11.5338472268354, 48.112750262375002 ] } },
{ "type": "Feature", "properties": { "stop_id": "de:09162:1336", "stop_name": "Friedrich-Hebbel-Straße", "stop_lat": 48.112798244383399, "stop_lon": 11.526094765932401, "location_type": 1.0, "parent_station": null }, "geometry": { "type": "Point", "coordinates": [ 11.526094765932401, 48.112798244383399 ] } },
{ "type": "Feature", "properties": { "stop_id": "de:09162:1337", "stop_name": "Kistlerhofstraße", "stop_lat": 48.095257835754303, "stop_lon": 11.5235974494422, "location_type": 1.0, "parent_station": null }, "geometry": { "type": "Point", "coordinates": [ 11.5235974494422, 48.095257835754303 ] } },
{ "type": "Feature", "properties": { "stop_id": "de:09162:1338", "stop_name": "Leutstettener Straße", "stop_lat": 48.093403865584101, "stop_lon": 11.522627268935199, "location_type": 1.0, "parent_station": null }, "geometry": { "type": "Point", "coordinates": [ 11.522627268935199, 48.093403865584101 ] } },
{ "type": "Feature", "properties": { "stop_id": "de:09162:1339", "stop_name": "Siemensallee", "stop_lat": 48.090529779695601, "stop_lon": 11.521136065563301, "location_type": 1.0, "parent_station": null }, "geometry": { "type": "Point", "coordinates": [ 11.521136065563301, 48.090529779695601 ] } },
{ "type": "Feature", "properties": { "stop_id": "de:09162:134", "stop_name": "Wehrlestraße", "stop_lat": 48.148214730337898, "stop_lon": 11.6080840019254, "location_type": 1.0, "parent_station": null }, "geometry": { "type": "Point", "coordinates": [ 11.6080840019254, 48.148214730337898 ] } },
{ "type": "Feature", "properties": { "stop_id": "de:09162:1340", "stop_name": "Westpark", "stop_lat": 48.1179320604056, "stop_lon": 11.5165905902251, "location_type": 1.0, "parent_station": null }, "geometry": { "type": "Point", "coordinates": [ 11.5165905902251, 48.1179320604056 ] } },
{ "type": "Feature", "properties": { "stop_id": "de:09162:1341", "stop_name": "Münsinger Straße", "stop_lat": 48.0904877772495, "stop_lon": 11.517632635954801, "location_type": 1.0, "parent_station": null }, "geometry": { "type": "Point", "coordinates": [ 11.517632635954801, 48.0904877772495 ] } },
{ "type": "Feature", "properties": { "stop_id": "de:09162:1342", "stop_name": "Spindlerplatz", "stop_lat": 48.089965743985701, "stop_lon": 11.514183105263299, "location_type": 1.0, "parent_station": null }, "geometry": { "type": "Point", "coordinates": [ 11.514183105263299, 48.089965743985701 ] } },
{ "type": "Feature", "properties": { "stop_id": "de:09162:1344", "stop_name": "Bastian-Schmid-Platz", "stop_lat": 48.0850991789628, "stop_lon": 11.513239874214801, "location_type": 1.0, "parent_station": null }, "geometry": { "type": "Point", "coordinates": [ 11.513239874214801, 48.0850991789628 ] } },
{ "type": "Feature", "properties": { "stop_id": "de:09162:1345", "stop_name": "Marienstern", "stop_lat": 48.087715539958999, "stop_lon": 11.5197077442614, "location_type": 1.0, "parent_station": null }, "geometry": { "type": "Point", "coordinates": [ 11.5197077442614, 48.087715539958999 ] } },
{ "type": "Feature", "properties": { "stop_id": "de:09162:1346", "stop_name": "Hofbrunnstraße", "stop_lat": 48.083664924602601, "stop_lon": 11.5172373772297, "location_type": 1.0, "parent_station": null }, "geometry": { "type": "Point", "coordinates": [ 11.5172373772297, 48.083664924602601 ] } },
{ "type": "Feature", "properties": { "stop_id": "de:09162:1347", "stop_name": "Glötzleweg", "stop_lat": 48.086221350093801, "stop_lon": 11.510149669637, "location_type": 1.0, "parent_station": null }, "geometry": { "type": "Point", "coordinates": [ 11.510149669637, 48.086221350093801 ] } },
{ "type": "Feature", "properties": { "stop_id": "de:09162:1349", "stop_name": "Wilhelm-Busch-Straße", "stop_lat": 48.082254635505301, "stop_lon": 11.506215048692001, "location_type": 1.0, "parent_station": null }, "geometry": { "type": "Point", "coordinates": [ 11.506215048692001, 48.082254635505301 ] } },
{ "type": "Feature", "properties": { "stop_id": "de:09162:135", "stop_name": "Chinesischer Turm", "stop_lat": 48.152745701939601, "stop_lon": 11.593468412250701, "location_type": 1.0, "parent_station": null }, "geometry": { "type": "Point", "coordinates": [ 11.593468412250701, 48.152745701939601 ] } },
{ "type": "Feature", "properties": { "stop_id": "de:09162:1350", "stop_name": "Munckerstraße", "stop_lat": 48.089521711521698, "stop_lon": 11.502909248446, "location_type": 1.0, "parent_station": null }, "geometry": { "type": "Point", "coordinates": [ 11.502909248446, 48.089521711521698 ] } },
{ "type": "Feature", "properties": { "stop_id": "de:09162:1351", "stop_name": "Gulbranssonstraße", "stop_lat": 48.082440675855402, "stop_lon": 11.503762647965999, "location_type": 1.0, "parent_station": null }, "geometry": { "type": "Point", "coordinates": [ 11.503762647965999, 48.082440675855402 ] } },
{ "type": "Feature", "properties": { "stop_id": "de:09162:1352", "stop_name": "Parkstadt Solln", "stop_lat": 48.079812043341803, "stop_lon": 11.5036548501319, "location_type": 1.0, "parent_station": null }, "geometry": { "type": "Point", "coordinates": [ 11.5036548501319, 48.079812043341803 ] } },
{ "type": "Feature", "properties": { "stop_id": "de:09162:1353", "stop_name": "Allescherstraße", "stop_lat": 48.082530695138097, "stop_lon": 11.519959272541, "location_type": 1.0, "parent_station": null }, "geometry": { "type": "Point", "coordinates": [ 11.519959272541, 48.082530695138097 ] } },
{ "type": "Feature", "properties": { "stop_id": "de:09162:1354", "stop_name": "Stäblistraße", "stop_lat": 48.087385501756103, "stop_lon": 11.503151793572799, "location_type": 1.0, "parent_station": null }, "geometry": { "type": "Point", "coordinates": [ 11.503151793572799, 48.087385501756103 ] } },
{ "type": "Feature", "properties": { "stop_id": "de:09162:1355", "stop_name": "Nesselwanger Straße", "stop_lat": 48.084757121931098, "stop_lon": 11.490826907872901, "location_type": 1.0, "parent_station": null }, "geometry": { "type": "Point", "coordinates": [ 11.490826907872901, 48.084757121931098 ] } },
{ "type": "Feature", "properties": { "stop_id": "de:09162:1356", "stop_name": "Forstenried", "stop_lat": 48.084787127024903, "stop_lon": 11.494770511970801, "location_type": 1.0, "parent_station": null }, "geometry": { "type": "Point", "coordinates": [ 11.494770511970801, 48.084787127024903 ] } },
{ "type": "Feature", "properties": { "stop_id": "de:09162:1357", "stop_name": "Eberlestraße", "stop_lat": 48.078395646851199, "stop_lon": 11.5080296455662, "location_type": 1.0, "parent_station": null }, "geometry": { "type": "Point", "coordinates": [ 11.5080296455662, 48.078395646851199 ] } },
{ "type": "Feature", "properties": { "stop_id": "de:09162:1358", "stop_name": "Bleibtreustraße", "stop_lat": 48.076144936623102, "stop_lon": 11.5142909030974, "location_type": 1.0, "parent_station": null }, "geometry": { "type": "Point", "coordinates": [ 11.5142909030974, 48.076144936623102 ] } },
{ "type": "Feature", "properties": { "stop_id": "de:09162:1359", "stop_name": "Stridbeckstraße", "stop_lat": 48.076373013076001, "stop_lon": 11.519483165440301, "location_type": 1.0, "parent_station": null }, "geometry": { "type": "Point", "coordinates": [ 11.519483165440301, 48.076373013076001 ] } },
{ "type": "Feature", "properties": { "stop_id": "de:09162:136", "stop_name": "Thiemestraße", "stop_lat": 48.156647051365702, "stop_lon": 11.5887073412442, "location_type": 1.0, "parent_station": null }, "geometry": { "type": "Point", "coordinates": [ 11.5887073412442, 48.156647051365702 ] } },
{ "type": "Feature", "properties": { "stop_id": "de:09162:1360", "stop_name": "Gilgstraße", "stop_lat": 48.081870550073504, "stop_lon": 11.5088650787805, "location_type": 1.0, "parent_station": null }, "geometry": { "type": "Point", "coordinates": [ 11.5088650787805, 48.081870550073504 ] } },
{ "type": "Feature", "properties": { "stop_id": "de:09162:1361", "stop_name": "Geretsrieder Straße", "stop_lat": 48.099985457085097, "stop_lon": 11.533236372442101, "location_type": 1.0, "parent_station": null }, "geometry": { "type": "Point", "coordinates": [ 11.533236372442101, 48.099985457085097 ] } },
{ "type": "Feature", "properties": { "stop_id": "de:09162:1362", "stop_name": "Waldfriedhof Solln", "stop_lat": 48.068917990771801, "stop_lon": 11.5169858489501, "location_type": 1.0, "parent_station": null }, "geometry": { "type": "Point", "coordinates": [ 11.5169858489501, 48.068917990771801 ] } },
{ "type": "Feature", "properties": { "stop_id": "de:09162:137", "stop_name": "Am Tucherpark", "stop_lat": 48.152709743422399, "stop_lon": 11.5990828827772, "location_type": 1.0, "parent_station": null }, "geometry": { "type": "Point", "coordinates": [ 11.5990828827772, 48.152709743422399 ] } },
{ "type": "Feature", "properties": { "stop_id": "de:09162:138", "stop_name": "Schwester-Eubulina-Platz", "stop_lat": 48.123449141229003, "stop_lon": 11.593198917665401, "location_type": 1.0, "parent_station": null }, "geometry": { "type": "Point", "coordinates": [ 11.593198917665401, 48.123449141229003 ] } },
{ "type": "Feature", "properties": { "stop_id": "de:09162:139", "stop_name": "Auerfeldstraße", "stop_lat": 48.1236410290294, "stop_lon": 11.5962621727847, "location_type": 1.0, "parent_station": null }, "geometry": { "type": "Point", "coordinates": [ 11.5962621727847, 48.1236410290294 ] } },
{ "type": "Feature", "properties": { "stop_id": "de:09162:140", "stop_name": "Hohenzollernplatz", "stop_lat": 48.162351716450999, "stop_lon": 11.568764741934, "location_type": 1.0, "parent_station": null }, "geometry": { "type": "Point", "coordinates": [ 11.568764741934, 48.162351716450999 ] } },
{ "type": "Feature", "properties": { "stop_id": "de:09162:1401", "stop_name": "Hohenzollernplatz Süd", "stop_lat": 48.159014084990702, "stop_lon": 11.568486264195901, "location_type": 1.0, "parent_station": null }, "geometry": { "type": "Point", "coordinates": [ 11.568486264195901, 48.159014084990702 ] } },
{ "type": "Feature", "properties": { "stop_id": "de:09162:1402", "stop_name": "Aurikelstraße", "stop_lat": 48.108179770697703, "stop_lon": 11.4910065709298, "location_type": 1.0, "parent_station": null }, "geometry": { "type": "Point", "coordinates": [ 11.4910065709298, 48.108179770697703 ] } },
{ "type": "Feature", "properties": { "stop_id": "de:09162:1403", "stop_name": "Plattlinger Straße", "stop_lat": 48.078857780500599, "stop_lon": 11.51271885135, "location_type": 1.0, "parent_station": null }, "geometry": { "type": "Point", "coordinates": [ 11.51271885135, 48.078857780500599 ] } },
{ "type": "Feature", "properties": { "stop_id": "de:09162:1404", "stop_name": "Lorettoplatz", "stop_lat": 48.103662861885297, "stop_lon": 11.488652984885, "location_type": 1.0, "parent_station": null }, "geometry": { "type": "Point", "coordinates": [ 11.488652984885, 48.103662861885297 ] } },
{ "type": "Feature", "properties": { "stop_id": "de:09162:1405", "stop_name": "Staffelseestraße", "stop_lat": 48.092059845414497, "stop_lon": 11.5063228465261, "location_type": 1.0, "parent_station": null }, "geometry": { "type": "Point", "coordinates": [ 11.5063228465261, 48.092059845414497 ] } },
{ "type": "Feature", "properties": { "stop_id": "de:09162:1408", "stop_name": "Züricher Straße", "stop_lat": 48.094495856105603, "stop_lon": 11.504319603442299, "location_type": 1.0, "parent_station": null }, "geometry": { "type": "Point", "coordinates": [ 11.504319603442299, 48.094495856105603 ] } },
{ "type": "Feature", "properties": { "stop_id": "de:09162:1409", "stop_name": "Limmatstraße", "stop_lat": 48.094687852041901, "stop_lon": 11.5010677021133, "location_type": 1.0, "parent_station": null }, "geometry": { "type": "Point", "coordinates": [ 11.5010677021133, 48.094687852041901 ] } },
{ "type": "Feature", "properties": { "stop_id": "de:09162:141", "stop_name": "Stephansplatz", "stop_lat": 48.130782343275499, "stop_lon": 11.565899116177199, "location_type": 1.0, "parent_station": null }, "geometry": { "type": "Point", "coordinates": [ 11.565899116177199, 48.130782343275499 ] } },
{ "type": "Feature", "properties": { "stop_id": "de:09162:1411", "stop_name": "Hatzelweg", "stop_lat": 48.086491387620399, "stop_lon": 11.4958125577005, "location_type": 1.0, "parent_station": null }, "geometry": { "type": "Point", "coordinates": [ 11.4958125577005, 48.086491387620399 ] } },
{ "type": "Feature", "properties": { "stop_id": "de:09162:1413", "stop_name": "Kriegelsteinerstraße", "stop_lat": 48.089893738981701, "stop_lon": 11.4968456202774, "location_type": 1.0, "parent_station": null }, "geometry": { "type": "Point", "coordinates": [ 11.4968456202774, 48.089893738981701 ] } },
{ "type": "Feature", "properties": { "stop_id": "de:09162:1415", "stop_name": "Bad Forstenried", "stop_lat": 48.086989453116999, "stop_lon": 11.4995315829772, "location_type": 1.0, "parent_station": null }, "geometry": { "type": "Point", "coordinates": [ 11.4995315829772, 48.086989453116999 ] } },
{ "type": "Feature", "properties": { "stop_id": "de:09162:1416", "stop_name": "Neurieder Straße", "stop_lat": 48.086839433896699, "stop_lon": 11.4854190498618, "location_type": 1.0, "parent_station": null }, "geometry": { "type": "Point", "coordinates": [ 11.4854190498618, 48.086839433896699 ] } },
{ "type": "Feature", "properties": { "stop_id": "de:09162:142", "stop_name": "Maistraße", "stop_lat": 48.129391333906803, "stop_lon": 11.562126191983401, "location_type": 1.0, "parent_station": null }, "geometry": { "type": "Point", "coordinates": [ 11.562126191983401, 48.129391333906803 ] } },
{ "type": "Feature", "properties": { "stop_id": "de:09162:1421", "stop_name": "Forstenrieder Park", "stop_lat": 48.077411348358901, "stop_lon": 11.488482304981, "location_type": 1.0, "parent_station": null }, "geometry": { "type": "Point", "coordinates": [ 11.488482304981, 48.077411348358901 ] } },
{ "type": "Feature", "properties": { "stop_id": "de:09162:1422", "stop_name": "Mindelheimer Straße", "stop_lat": 48.080058108247798, "stop_lon": 11.4921294650351, "location_type": 1.0, "parent_station": null }, "geometry": { "type": "Point", "coordinates": [ 11.4921294650351, 48.080058108247798 ] } },
{ "type": "Feature", "properties": { "stop_id": "de:09162:1423", "stop_name": "Spielmannsauer Straße", "stop_lat": 48.082398666802902, "stop_lon": 11.494015927132001, "location_type": 1.0, "parent_station": null }, "geometry": { "type": "Point", "coordinates": [ 11.494015927132001, 48.082398666802902 ] } },
{ "type": "Feature", "properties": { "stop_id": "de:09162:1424", "stop_name": "Marchioninistraße", "stop_lat": 48.113673908166398, "stop_lon": 11.476867088355799, "location_type": 1.0, "parent_station": null }, "geometry": { "type": "Point", "coordinates": [ 11.476867088355799, 48.113673908166398 ] } },
{ "type": "Feature", "properties": { "stop_id": "de:09162:1426", "stop_name": "Max-Lebsche-Platz", "stop_lat": 48.108569657893298, "stop_lon": 11.4754028344424, "location_type": 1.0, "parent_station": null }, "geometry": { "type": "Point", "coordinates": [ 11.4754028344424, 48.108569657893298 ] } },
{ "type": "Feature", "properties": { "stop_id": "de:09162:143", "stop_name": "Waltherstraße", "stop_lat": 48.127532598786601, "stop_lon": 11.563841974176301, "location_type": 1.0, "parent_station": null }, "geometry": { "type": "Point", "coordinates": [ 11.563841974176301, 48.127532598786601 ] } },
{ "type": "Feature", "properties": { "stop_id": "de:09162:1430", "stop_name": "Brudermühlstraße", "stop_lat": 48.1125943205383, "stop_lon": 11.548723327942501, "location_type": 1.0, "parent_station": null }, "geometry": { "type": "Point", "coordinates": [ 11.548723327942501, 48.1125943205383 ] } },
{ "type": "Feature", "properties": { "stop_id": "de:09162:1431", "stop_name": "Sylvensteinstraße", "stop_lat": 48.112972178788198, "stop_lon": 11.5397222087944, "location_type": 1.0, "parent_station": null }, "geometry": { "type": "Point", "coordinates": [ 11.5397222087944, 48.112972178788198 ] } },
{ "type": "Feature", "properties": { "stop_id": "de:09162:1432", "stop_name": "Zöllerstraße", "stop_lat": 48.105258521764199, "stop_lon": 11.4752501208441, "location_type": 1.0, "parent_station": null }, "geometry": { "type": "Point", "coordinates": [ 11.4752501208441, 48.105258521764199 ] } },
{ "type": "Feature", "properties": { "stop_id": "de:09162:1434", "stop_name": "Ehrenmal", "stop_lat": 48.099367531279, "stop_lon": 11.478933213509499, "location_type": 1.0, "parent_station": null }, "geometry": { "type": "Point", "coordinates": [ 11.478933213509499, 48.099367531279 ] } },
{ "type": "Feature", "properties": { "stop_id": "de:09162:1436", "stop_name": "Tischlerstraße", "stop_lat": 48.095155839133099, "stop_lon": 11.4805771304797, "location_type": 1.0, "parent_station": null }, "geometry": { "type": "Point", "coordinates": [ 11.4805771304797, 48.095155839133099 ] } },
{ "type": "Feature", "properties": { "stop_id": "de:09162:1437", "stop_name": "Bellinzonastraße", "stop_lat": 48.093373865517201, "stop_lon": 11.481232900637201, "location_type": 1.0, "parent_station": null }, "geometry": { "type": "Point", "coordinates": [ 11.481232900637201, 48.093373865517201 ] } },
{ "type": "Feature", "properties": { "stop_id": "de:09162:1438", "stop_name": "Forst-Kasten-Allee", "stop_lat": 48.094759850333197, "stop_lon": 11.476426913866501, "location_type": 1.0, "parent_station": null }, "geometry": { "type": "Point", "coordinates": [ 11.476426913866501, 48.094759850333197 ] } },
{ "type": "Feature", "properties": { "stop_id": "de:09162:144", "stop_name": "Zenettistraße", "stop_lat": 48.122459708380603, "stop_lon": 11.5590809031698, "location_type": 1.0, "parent_station": null }, "geometry": { "type": "Point", "coordinates": [ 11.5590809031698, 48.122459708380603 ] } },
{ "type": "Feature", "properties": { "stop_id": "de:09162:1440", "stop_name": "Thalkirchen (Tierpark)", "stop_lat": 48.102709041536599, "stop_lon": 11.546019398936901, "location_type": 1.0, "parent_station": null }, "geometry": { "type": "Point", "coordinates": [ 11.546019398936901, 48.102709041536599 ] } },
{ "type": "Feature", "properties": { "stop_id": "de:09162:1441", "stop_name": "Maxhofstraße", "stop_lat": 48.0881895911265, "stop_lon": 11.4792206744005, "location_type": 1.0, "parent_station": null }, "geometry": { "type": "Point", "coordinates": [ 11.4792206744005, 48.0881895911265 ] } },
{ "type": "Feature", "properties": { "stop_id": "de:09162:1442", "stop_name": "Gautinger Straße", "stop_lat": 48.084877142201201, "stop_lon": 11.47861880316, "location_type": 1.0, "parent_station": null }, "geometry": { "type": "Point", "coordinates": [ 11.47861880316, 48.084877142201201 ] } },
{ "type": "Feature", "properties": { "stop_id": "de:09162:1444", "stop_name": "Vinzenz-Schüpfer-Straße", "stop_lat": 48.083478888680197, "stop_lon": 11.483820048655801, "location_type": 1.0, "parent_station": null }, "geometry": { "type": "Point", "coordinates": [ 11.483820048655801, 48.083478888680197 ] } },
{ "type": "Feature", "properties": { "stop_id": "de:09162:1446", "stop_name": "Allgäuer Straße", "stop_lat": 48.081936564961197, "stop_lon": 11.485526847695899, "location_type": 1.0, "parent_station": null }, "geometry": { "type": "Point", "coordinates": [ 11.485526847695899, 48.081936564961197 ] } },
{ "type": "Feature", "properties": { "stop_id": "de:09162:1448", "stop_name": "Kemptener Straße", "stop_lat": 48.078755751350698, "stop_lon": 11.4842153073809, "location_type": 1.0, "parent_station": null }, "geometry": { "type": "Point", "coordinates": [ 11.4842153073809, 48.078755751350698 ] } },
{ "type": "Feature", "properties": { "stop_id": "de:09162:1450", "stop_name": "Obersendling", "stop_lat": 48.098203650853698, "stop_lon": 11.5356977563209, "location_type": 1.0, "parent_station": null }, "geometry": { "type": "Point", "coordinates": [ 11.5356977563209, 48.098203650853698 ] } },
{ "type": "Feature", "properties": { "stop_id": "de:09162:1452", "stop_name": "Tessiner Straße", "stop_lat": 48.090715790115702, "stop_lon": 11.475178255621399, "location_type": 1.0, "parent_station": null }, "geometry": { "type": "Point", "coordinates": [ 11.475178255621399, 48.090715790115702 ] } },
{ "type": "Feature", "properties": { "stop_id": "de:09162:1454", "stop_name": "Appenzeller Straße", "stop_lat": 48.0930438636261, "stop_lon": 11.475411817595299, "location_type": 1.0, "parent_station": null }, "geometry": { "type": "Point", "coordinates": [ 11.475411817595299, 48.0930438636261 ] } },
{ "type": "Feature", "properties": { "stop_id": "de:09162:146", "stop_name": "Ehrengutstraße", "stop_lat": 48.121368311860998, "stop_lon": 11.5573830872826, "location_type": 1.0, "parent_station": null }, "geometry": { "type": "Point", "coordinates": [ 11.5573830872826, 48.121368311860998 ] } },
{ "type": "Feature", "properties": { "stop_id": "de:09162:1460", "stop_name": "Aidenbachstraße", "stop_lat": 48.097873679959797, "stop_lon": 11.525160518036699, "location_type": 1.0, "parent_station": null }, "geometry": { "type": "Point", "coordinates": [ 11.525160518036699, 48.097873679959797 ] } },
{ "type": "Feature", "properties": { "stop_id": "de:09162:1462", "stop_name": "Waldfriedhof Haupteingang", "stop_lat": 48.107651918704597, "stop_lon": 11.502244495135701, "location_type": 1.0, "parent_station": null }, "geometry": { "type": "Point", "coordinates": [ 11.502244495135701, 48.107651918704597 ] } },
{ "type": "Feature", "properties": { "stop_id": "de:09162:1464", "stop_name": "Drygalski-Allee", "stop_lat": 48.098173653587203, "stop_lon": 11.5083979548327, "location_type": 1.0, "parent_station": null }, "geometry": { "type": "Point", "coordinates": [ 11.5083979548327, 48.098173653587203 ] } },
{ "type": "Feature", "properties": { "stop_id": "de:09162:1466", "stop_name": "Südpark", "stop_lat": 48.100933328837897, "stop_lon": 11.5111288332968, "location_type": 1.0, "parent_station": null }, "geometry": { "type": "Point", "coordinates": [ 11.5111288332968, 48.100933328837897 ] } },
{ "type": "Feature", "properties": { "stop_id": "de:09162:1470", "stop_name": "Machtlfinger Straße", "stop_lat": 48.097219731385401, "stop_lon": 11.5140753074292, "location_type": 1.0, "parent_station": null }, "geometry": { "type": "Point", "coordinates": [ 11.5140753074292, 48.097219731385401 ] } },
{ "type": "Feature", "properties": { "stop_id": "de:09162:1472", "stop_name": "Klinikum Großhadern Ost", "stop_lat": 48.111220812382797, "stop_lon": 11.473938580529101, "location_type": 1.0, "parent_station": null }, "geometry": { "type": "Point", "coordinates": [ 11.473938580529101, 48.111220812382797 ] } },
{ "type": "Feature", "properties": { "stop_id": "de:09162:1480", "stop_name": "Forstenrieder Allee", "stop_lat": 48.095095841026101, "stop_lon": 11.4993698862261, "location_type": 1.0, "parent_station": null }, "geometry": { "type": "Point", "coordinates": [ 11.4993698862261, 48.095095841026101 ] } },
{ "type": "Feature", "properties": { "stop_id": "de:09162:149", "stop_name": "Carl-Amery-Platz", "stop_lat": 48.121236383238298, "stop_lon": 11.5854823893738, "location_type": 1.0, "parent_station": null }, "geometry": { "type": "Point", "coordinates": [ 11.5854823893738, 48.121236383238298 ] } },
{ "type": "Feature", "properties": { "stop_id": "de:09162:1490", "stop_name": "Basler Straße", "stop_lat": 48.091225815235603, "stop_lon": 11.4911413182224, "location_type": 1.0, "parent_station": null }, "geometry": { "type": "Point", "coordinates": [ 11.4911413182224, 48.091225815235603 ] } },
{ "type": "Feature", "properties": { "stop_id": "de:09162:15", "stop_name": "Karlstraße", "stop_lat": 48.144768286996701, "stop_lon": 11.5596648081046, "location_type": 1.0, "parent_station": null }, "geometry": { "type": "Point", "coordinates": [ 11.5596648081046, 48.144768286996701 ] } },
{ "type": "Feature", "properties": { "stop_id": "de:09162:150", "stop_name": "Fraunhoferstraße", "stop_lat": 48.129265421716397, "stop_lon": 11.5743073472378, "location_type": 1.0, "parent_station": null }, "geometry": { "type": "Point", "coordinates": [ 11.5743073472378, 48.129265421716397 ] } },
{ "type": "Feature", "properties": { "stop_id": "de:09162:1500", "stop_name": "Fürstenried West", "stop_lat": 48.088339606408603, "stop_lon": 11.480936456593399, "location_type": 1.0, "parent_station": null }, "geometry": { "type": "Point", "coordinates": [ 11.480936456593399, 48.088339606408603 ] } },
{ "type": "Feature", "properties": { "stop_id": "de:09162:1502", "stop_name": "Kornwegerstraße", "stop_lat": 48.112090505216301, "stop_lon": 11.4947615288179, "location_type": 1.0, "parent_station": null }, "geometry": { "type": "Point", "coordinates": [ 11.4947615288179, 48.112090505216301 ] } },
{ "type": "Feature", "properties": { "stop_id": "de:09162:151", "stop_name": "Corneliusbrücke", "stop_lat": 48.1293013966594, "stop_lon": 11.5792750307596, "location_type": 1.0, "parent_station": null }, "geometry": { "type": "Point", "coordinates": [ 11.5792750307596, 48.1293013966594 ] } },
{ "type": "Feature", "properties": { "stop_id": "de:09162:1510", "stop_name": "Holzapfelkreuth", "stop_lat": 48.1163128046583, "stop_lon": 11.502397208733999, "location_type": 1.0, "parent_station": null }, "geometry": { "type": "Point", "coordinates": [ 11.502397208733999, 48.1163128046583 ] } },
{ "type": "Feature", "properties": { "stop_id": "de:09162:1514", "stop_name": "Andreas-Vöst-Straße", "stop_lat": 48.121722118767401, "stop_lon": 11.5025858549437, "location_type": 1.0, "parent_station": null }, "geometry": { "type": "Point", "coordinates": [ 11.5025858549437, 48.121722118767401 ] } },
{ "type": "Feature", "properties": { "stop_id": "de:09162:1516", "stop_name": "Ammerseestraße", "stop_lat": 48.125829698534297, "stop_lon": 11.5028194169176, "location_type": 1.0, "parent_station": null }, "geometry": { "type": "Point", "coordinates": [ 11.5028194169176, 48.125829698534297 ] } },
{ "type": "Feature", "properties": { "stop_id": "de:09162:1518", "stop_name": "Aindorferstraße", "stop_lat": 48.131345931173499, "stop_lon": 11.5028733158346, "location_type": 1.0, "parent_station": null }, "geometry": { "type": "Point", "coordinates": [ 11.5028733158346, 48.131345931173499 ] } },
{ "type": "Feature", "properties": { "stop_id": "de:09162:152", "stop_name": "Aurbacherstraße", "stop_lat": 48.122441718516001, "stop_lon": 11.590602786493999, "location_type": 1.0, "parent_station": null }, "geometry": { "type": "Point", "coordinates": [ 11.590602786493999, 48.122441718516001 ] } },
{ "type": "Feature", "properties": { "stop_id": "de:09162:1520", "stop_name": "Haderner Stern", "stop_lat": 48.118393838803399, "stop_lon": 11.4888236647891, "location_type": 1.0, "parent_station": null }, "geometry": { "type": "Point", "coordinates": [ 11.4888236647891, 48.118393838803399 ] } },
{ "type": "Feature", "properties": { "stop_id": "de:09162:1524", "stop_name": "Gräfelfinger Straße", "stop_lat": 48.117164419598602, "stop_lon": 11.495354416905499, "location_type": 1.0, "parent_station": null }, "geometry": { "type": "Point", "coordinates": [ 11.495354416905499, 48.117164419598602 ] } },
{ "type": "Feature", "properties": { "stop_id": "de:09162:1525", "stop_name": "Kurparkstraße", "stop_lat": 48.119479301549099, "stop_lon": 11.496288664801099, "location_type": 1.0, "parent_station": null }, "geometry": { "type": "Point", "coordinates": [ 11.496288664801099, 48.119479301549099 ] } },
{ "type": "Feature", "properties": { "stop_id": "de:09162:1526", "stop_name": "Stiftsbogen", "stop_lat": 48.120606719235198, "stop_lon": 11.4913569138906, "location_type": 1.0, "parent_station": null }, "geometry": { "type": "Point", "coordinates": [ 11.4913569138906, 48.120606719235198 ] } },
{ "type": "Feature", "properties": { "stop_id": "de:09162:1527", "stop_name": "Wolkerweg", "stop_lat": 48.120576735042498, "stop_lon": 11.486604826037, "location_type": 1.0, "parent_station": null }, "geometry": { "type": "Point", "coordinates": [ 11.486604826037, 48.120576735042498 ] } },
{ "type": "Feature", "properties": { "stop_id": "de:09162:153", "stop_name": "Dom-Pedro-Straße", "stop_lat": 48.159715185378403, "stop_lon": 11.537144043928601, "location_type": 1.0, "parent_station": null }, "geometry": { "type": "Point", "coordinates": [ 11.537144043928601, 48.159715185378403 ] } },